[
{
  "pk": 1,
  "fields": {
    "app_label": "contenttypes",
    "model": "contenttype"
  },
  "model": "contenttypes.contenttype"
},
{
  "pk": 2,
  "fields": {
    "app_label": "sessions",
    "model": "session"
  },
  "model": "contenttypes.contenttype"
},
{
  "pk": 3,
  "fields": {
    "app_label": "auth",
    "model": "permission"
  },
  "model": "contenttypes.contenttype"
},
{
  "pk": 4,
  "fields": {
    "app_label": "auth",
    "model": "user"
  },
  "model": "contenttypes.contenttype"
},
{
  "pk": 5,
  "fields": {
    "app_label": "auth",
    "model": "group"
  },
  "model": "contenttypes.contenttype"
},
{
  "pk": 6,
  "fields": {
    "app_label": "admin",
    "model": "logentry"
  },
  "model": "contenttypes.contenttype"
},
{
  "pk": 7,
  "fields": {
    "app_label": "entidades",
    "model": "tipodisciplinaescenario"
  },
  "model": "contenttypes.contenttype"
},
{
  "pk": 8,
  "fields": {
    "app_label": "entidades",
    "model": "ciudad"
  },
  "model": "contenttypes.contenttype"
},
{
  "pk": 9,
  "fields": {
    "app_label": "entidades",
    "model": "tipoescenario"
  },
  "model": "contenttypes.contenttype"
},
{
  "pk": 10,
  "fields": {
    "app_label": "entidades",
    "model": "dias"
  },
  "model": "contenttypes.contenttype"
},
{
  "pk": 11,
  "fields": {
    "app_label": "entidades",
    "model": "caracteristicaescenario"
  },
  "model": "contenttypes.contenttype"
},
{
  "pk": 12,
  "fields": {
    "app_label": "entidades",
    "model": "departamento"
  },
  "model": "contenttypes.contenttype"
},
{
  "pk": 13,
  "fields": {
    "app_label": "entidades",
    "model": "entidad"
  },
  "model": "contenttypes.contenttype"
},
{
  "pk": 14,
  "fields": {
    "app_label": "snd",
    "model": "escenario"
  },
  "model": "contenttypes.contenttype"
},
{
  "pk": 15,
  "fields": {
    "app_label": "snd",
    "model": "caracterizacionescenario"
  },
  "model": "contenttypes.contenttype"
},
{
  "pk": 16,
  "fields": {
    "app_label": "snd",
    "model": "horariodisponibilidad"
  },
  "model": "contenttypes.contenttype"
},
{
  "pk": 17,
  "fields": {
    "app_label": "snd",
    "model": "foto"
  },
  "model": "contenttypes.contenttype"
},
{
  "pk": 18,
  "fields": {
    "app_label": "snd",
    "model": "video"
  },
  "model": "contenttypes.contenttype"
},
{
  "pk": 19,
  "fields": {
    "app_label": "snd",
    "model": "datohistorico"
  },
  "model": "contenttypes.contenttype"
},
{
  "pk": 20,
  "fields": {
    "app_label": "snd",
    "model": "contacto"
  },
  "model": "contenttypes.contenttype"
},
{
  "pk": 1,
  "fields": {
    "nombre": "public",
    "schema_name": "public",
    "domain_url": "localhost"
  },
  "model": "entidades.entidad"
},
{
  "pk": 2,
  "fields": {
    "nombre": "entidad1",
    "schema_name": "entidad1",
    "domain_url": "entidad1.localhost"
  },
  "model": "entidades.entidad"
},
{
  "pk": 1,
  "fields": {
    "nombre": "Amazonas",
    "latitud": -1.0197222,
    "codigo": "91",
    "longitud": -71.9383333
  },
  "model": "entidades.departamento"
},
{
  "pk": 2,
  "fields": {
    "nombre": "Antioquia",
    "latitud": 7.0,
    "codigo": "05",
    "longitud": -75.5
  },
  "model": "entidades.departamento"
},
{
  "pk": 3,
  "fields": {
    "nombre": "Arauca",
    "latitud": 7.0902778,
    "codigo": "81",
    "longitud": -70.7616667
  },
  "model": "entidades.departamento"
},
{
  "pk": 4,
  "fields": {
    "nombre": "Atl\u00e1ntico",
    "latitud": 10.75,
    "codigo": "08",
    "longitud": -75.0
  },
  "model": "entidades.departamento"
},
{
  "pk": 5,
  "fields": {
    "nombre": "Bol\u00edvar",
    "latitud": 9.0,
    "codigo": "13",
    "longitud": -74.3333333
  },
  "model": "entidades.departamento"
},
{
  "pk": 6,
  "fields": {
    "nombre": "Boyac\u00e1",
    "latitud": 5.5,
    "codigo": "15",
    "longitud": -72.5
  },
  "model": "entidades.departamento"
},
{
  "pk": 7,
  "fields": {
    "nombre": "Caldas",
    "latitud": 5.25,
    "codigo": "17",
    "longitud": -75.5
  },
  "model": "entidades.departamento"
},
{
  "pk": 8,
  "fields": {
    "nombre": "Caquet\u00e1",
    "latitud": 1.0,
    "codigo": "18",
    "longitud": -74.0
  },
  "model": "entidades.departamento"
},
{
  "pk": 9,
  "fields": {
    "nombre": "Casanare",
    "latitud": 5.5,
    "codigo": "85",
    "longitud": -71.5
  },
  "model": "entidades.departamento"
},
{
  "pk": 10,
  "fields": {
    "nombre": "Cauca",
    "latitud": 2.5,
    "codigo": "19",
    "longitud": -76.8333333
  },
  "model": "entidades.departamento"
},
{
  "pk": 11,
  "fields": {
    "nombre": "Cesar",
    "latitud": 9.3333333,
    "codigo": "20",
    "longitud": -73.5
  },
  "model": "entidades.departamento"
},
{
  "pk": 12,
  "fields": {
    "nombre": "Choc\u00f3",
    "latitud": 6.0,
    "codigo": "27",
    "longitud": -77.0
  },
  "model": "entidades.departamento"
},
{
  "pk": 13,
  "fields": {
    "nombre": "Cundinamarca",
    "latitud": 5.0,
    "codigo": "25",
    "longitud": -74.1666667
  },
  "model": "entidades.departamento"
},
{
  "pk": 14,
  "fields": {
    "nombre": "C\u00f3rdoba",
    "latitud": 8.3333333,
    "codigo": "23",
    "longitud": -75.6666667
  },
  "model": "entidades.departamento"
},
{
  "pk": 15,
  "fields": {
    "nombre": "Guain\u00eda",
    "latitud": 2.5,
    "codigo": "94",
    "longitud": -69.0
  },
  "model": "entidades.departamento"
},
{
  "pk": 16,
  "fields": {
    "nombre": "Guaviare",
    "latitud": 1.6894444,
    "codigo": "95",
    "longitud": -72.8202778
  },
  "model": "entidades.departamento"
},
{
  "pk": 17,
  "fields": {
    "nombre": "Huila",
    "latitud": 2.5,
    "codigo": "41",
    "longitud": -75.75
  },
  "model": "entidades.departamento"
},
{
  "pk": 18,
  "fields": {
    "nombre": "La Guajira",
    "latitud": 11.5,
    "codigo": "44",
    "longitud": -72.5
  },
  "model": "entidades.departamento"
},
{
  "pk": 19,
  "fields": {
    "nombre": "Magdalena",
    "latitud": 10.0,
    "codigo": "47",
    "longitud": -74.5
  },
  "model": "entidades.departamento"
},
{
  "pk": 20,
  "fields": {
    "nombre": "Meta",
    "latitud": 3.5,
    "codigo": "50",
    "longitud": -73.0
  },
  "model": "entidades.departamento"
},
{
  "pk": 21,
  "fields": {
    "nombre": "Nari\u00f1o",
    "latitud": 1.5,
    "codigo": "52",
    "longitud": -78.0
  },
  "model": "entidades.departamento"
},
{
  "pk": 22,
  "fields": {
    "nombre": "Norte de Santander",
    "latitud": 8.0,
    "codigo": "54",
    "longitud": -73.0
  },
  "model": "entidades.departamento"
},
{
  "pk": 23,
  "fields": {
    "nombre": "Putumayo",
    "latitud": 0.5,
    "codigo": "86",
    "longitud": -76.0
  },
  "model": "entidades.departamento"
},
{
  "pk": 24,
  "fields": {
    "nombre": "Quind\u00edo",
    "latitud": 4.5,
    "codigo": "63",
    "longitud": -75.6666667
  },
  "model": "entidades.departamento"
},
{
  "pk": 25,
  "fields": {
    "nombre": "Risaralda",
    "latitud": 5.0,
    "codigo": "66",
    "longitud": -76.0
  },
  "model": "entidades.departamento"
},
{
  "pk": 26,
  "fields": {
    "nombre": "San Andr\u00e9s",
    "latitud": 12.5847222,
    "codigo": "88",
    "longitud": -81.7005556
  },
  "model": "entidades.departamento"
},
{
  "pk": 27,
  "fields": {
    "nombre": "Santander",
    "latitud": 7.0,
    "codigo": "68",
    "longitud": -73.25
  },
  "model": "entidades.departamento"
},
{
  "pk": 28,
  "fields": {
    "nombre": "Sucre",
    "latitud": 9.0,
    "codigo": "70",
    "longitud": -75.0
  },
  "model": "entidades.departamento"
},
{
  "pk": 29,
  "fields": {
    "nombre": "Tolima",
    "latitud": 3.75,
    "codigo": "73",
    "longitud": -75.25
  },
  "model": "entidades.departamento"
},
{
  "pk": 30,
  "fields": {
    "nombre": "Valle del Cauca",
    "latitud": 3.75,
    "codigo": "76",
    "longitud": -76.5
  },
  "model": "entidades.departamento"
},
{
  "pk": 31,
  "fields": {
    "nombre": "Vaup\u00e9s",
    "latitud": 0.25,
    "codigo": "97",
    "longitud": -70.75
  },
  "model": "entidades.departamento"
},
{
  "pk": 32,
  "fields": {
    "nombre": "Vichada",
    "latitud": 5.0,
    "codigo": "99",
    "longitud": -69.5
  },
  "model": "entidades.departamento"
},
{
  "pk": 1,
  "fields": {
    "nombre": "Abejorral",
    "latitud": 5.75,
    "departamento": 2,
    "codigo": "05002",
    "longitud": -75.4166667
  },
  "model": "entidades.ciudad"
},
{
  "pk": 2,
  "fields": {
    "nombre": "Abriaqu\u00ed",
    "latitud": 6.6666667,
    "departamento": 2,
    "codigo": "05004",
    "longitud": -76.0833333
  },
  "model": "entidades.ciudad"
},
{
  "pk": 3,
  "fields": {
    "nombre": "Acac\u00edas",
    "latitud": 3.9166667,
    "departamento": 20,
    "codigo": "50006",
    "longitud": -73.8333333
  },
  "model": "entidades.ciudad"
},
{
  "pk": 4,
  "fields": {
    "nombre": "Acand\u00ed",
    "latitud": 8.3333333,
    "departamento": 12,
    "codigo": "27006",
    "longitud": -77.1666667
  },
  "model": "entidades.ciudad"
},
{
  "pk": 5,
  "fields": {
    "nombre": "Acevedo",
    "latitud": 1.75,
    "departamento": 17,
    "codigo": "41006",
    "longitud": -75.9166667
  },
  "model": "entidades.ciudad"
},
{
  "pk": 6,
  "fields": {
    "nombre": "Ach\u00ed",
    "latitud": 8.25,
    "departamento": 5,
    "codigo": "13006",
    "longitud": -74.5
  },
  "model": "entidades.ciudad"
},
{
  "pk": 7,
  "fields": {
    "nombre": "Agrado",
    "latitud": 2.3333333,
    "departamento": 17,
    "codigo": "41013",
    "longitud": -75.75
  },
  "model": "entidades.ciudad"
},
{
  "pk": 8,
  "fields": {
    "nombre": "Agua de Dios",
    "latitud": 4.4166667,
    "departamento": 13,
    "codigo": "25001",
    "longitud": -74.6666667
  },
  "model": "entidades.ciudad"
},
{
  "pk": 9,
  "fields": {
    "nombre": "Aguachica",
    "latitud": 8.3333333,
    "departamento": 11,
    "codigo": "20011",
    "longitud": -73.5833333
  },
  "model": "entidades.ciudad"
},
{
  "pk": 10,
  "fields": {
    "nombre": "Aguada",
    "latitud": 6.25,
    "departamento": 27,
    "codigo": "68013",
    "longitud": -73.4666667
  },
  "model": "entidades.ciudad"
},
{
  "pk": 11,
  "fields": {
    "nombre": "Aguadas",
    "latitud": 5.6333333,
    "departamento": 7,
    "codigo": "17013",
    "longitud": -75.4166667
  },
  "model": "entidades.ciudad"
},
{
  "pk": 12,
  "fields": {
    "nombre": "Aguazul",
    "latitud": 5.1730556,
    "departamento": 9,
    "codigo": "85010",
    "longitud": -72.5547222
  },
  "model": "entidades.ciudad"
},
{
  "pk": 13,
  "fields": {
    "nombre": "Agust\u00edn Codazzi",
    "latitud": 9.9166667,
    "departamento": 11,
    "codigo": "20013",
    "longitud": -73.25
  },
  "model": "entidades.ciudad"
},
{
  "pk": 14,
  "fields": {
    "nombre": "Aipe",
    "latitud": 3.25,
    "departamento": 17,
    "codigo": "41016",
    "longitud": -75.3333333
  },
  "model": "entidades.ciudad"
},
{
  "pk": 15,
  "fields": {
    "nombre": "Albania",
    "latitud": 1.3316667,
    "departamento": 8,
    "codigo": "18029",
    "longitud": -75.8822222
  },
  "model": "entidades.ciudad"
},
{
  "pk": 16,
  "fields": {
    "nombre": "Albania",
    "latitud": 11.1597222,
    "departamento": 18,
    "codigo": "44035",
    "longitud": -72.5855556
  },
  "model": "entidades.ciudad"
},
{
  "pk": 17,
  "fields": {
    "nombre": "Albania",
    "latitud": 5.8333333,
    "departamento": 27,
    "codigo": "68020",
    "longitud": -73.75
  },
  "model": "entidades.ciudad"
},
{
  "pk": 18,
  "fields": {
    "nombre": "Alb\u00e1n",
    "latitud": 4.9166667,
    "departamento": 13,
    "codigo": "25019",
    "longitud": -74.45
  },
  "model": "entidades.ciudad"
},
{
  "pk": 19,
  "fields": {
    "nombre": "Alb\u00e1n (San Jos\u00e9)",
    "latitud": 1.4744444,
    "departamento": 21,
    "codigo": "52019",
    "longitud": -77.0836111
  },
  "model": "entidades.ciudad"
},
{
  "pk": 20,
  "fields": {
    "nombre": "Alcal\u00e1",
    "latitud": 4.6666667,
    "departamento": 30,
    "codigo": "76020",
    "longitud": -75.75
  },
  "model": "entidades.ciudad"
},
{
  "pk": 21,
  "fields": {
    "nombre": "Aldana",
    "latitud": 0.9166667,
    "departamento": 21,
    "codigo": "52022",
    "longitud": -77.6833333
  },
  "model": "entidades.ciudad"
},
{
  "pk": 22,
  "fields": {
    "nombre": "Alejandria",
    "latitud": 6.3666667,
    "departamento": 2,
    "codigo": "05021",
    "longitud": -75.0833333
  },
  "model": "entidades.ciudad"
},
{
  "pk": 23,
  "fields": {
    "nombre": "Algarrobo",
    "latitud": 10.1869444,
    "departamento": 19,
    "codigo": "47030",
    "longitud": -74.5752778
  },
  "model": "entidades.ciudad"
},
{
  "pk": 24,
  "fields": {
    "nombre": "Algeciras",
    "latitud": 2.5833333,
    "departamento": 17,
    "codigo": "41020",
    "longitud": -75.25
  },
  "model": "entidades.ciudad"
},
{
  "pk": 25,
  "fields": {
    "nombre": "Almaguer",
    "latitud": 1.9166667,
    "departamento": 10,
    "codigo": "19022",
    "longitud": -76.8333333
  },
  "model": "entidades.ciudad"
},
{
  "pk": 26,
  "fields": {
    "nombre": "Almeida",
    "latitud": 4.9166667,
    "departamento": 6,
    "codigo": "15022",
    "longitud": -73.3333333
  },
  "model": "entidades.ciudad"
},
{
  "pk": 27,
  "fields": {
    "nombre": "Alpujarra",
    "latitud": 3.4166667,
    "departamento": 29,
    "codigo": "73024",
    "longitud": -74.9166667
  },
  "model": "entidades.ciudad"
},
{
  "pk": 28,
  "fields": {
    "nombre": "Altamira",
    "latitud": 2.1666667,
    "departamento": 17,
    "codigo": "41026",
    "longitud": -75.8333333
  },
  "model": "entidades.ciudad"
},
{
  "pk": 29,
  "fields": {
    "nombre": "Alto Baud\u00f3 (Pie de Pato)",
    "latitud": 5.6666667,
    "departamento": 12,
    "codigo": "27025",
    "longitud": -77.0
  },
  "model": "entidades.ciudad"
},
{
  "pk": 30,
  "fields": {
    "nombre": "Altos del Rosario",
    "latitud": 8.7944444,
    "departamento": 5,
    "codigo": "13030",
    "longitud": -74.1658333
  },
  "model": "entidades.ciudad"
},
{
  "pk": 31,
  "fields": {
    "nombre": "Alvarado",
    "latitud": 4.5833333,
    "departamento": 29,
    "codigo": "73026",
    "longitud": -75.0
  },
  "model": "entidades.ciudad"
},
{
  "pk": 32,
  "fields": {
    "nombre": "Amag\u00e1",
    "latitud": 6.05,
    "departamento": 2,
    "codigo": "05030",
    "longitud": -75.7
  },
  "model": "entidades.ciudad"
},
{
  "pk": 33,
  "fields": {
    "nombre": "Amalfi",
    "latitud": 7.0,
    "departamento": 2,
    "codigo": "05031",
    "longitud": -74.9166667
  },
  "model": "entidades.ciudad"
},
{
  "pk": 34,
  "fields": {
    "nombre": "Ambalema",
    "latitud": 4.8333333,
    "departamento": 29,
    "codigo": "73030",
    "longitud": -74.8333333
  },
  "model": "entidades.ciudad"
},
{
  "pk": 35,
  "fields": {
    "nombre": "Anapoima",
    "latitud": 4.6166667,
    "departamento": 13,
    "codigo": "25035",
    "longitud": -74.55
  },
  "model": "entidades.ciudad"
},
{
  "pk": 36,
  "fields": {
    "nombre": "Ancuya",
    "latitud": 1.25,
    "departamento": 21,
    "codigo": "52036",
    "longitud": -77.5
  },
  "model": "entidades.ciudad"
},
{
  "pk": 37,
  "fields": {
    "nombre": "Andaluc\u00eda",
    "latitud": 4.1741667,
    "departamento": 30,
    "codigo": "76036",
    "longitud": -76.1702778
  },
  "model": "entidades.ciudad"
},
{
  "pk": 38,
  "fields": {
    "nombre": "Andes",
    "latitud": 5.5833333,
    "departamento": 2,
    "codigo": "05034",
    "longitud": -75.9166667
  },
  "model": "entidades.ciudad"
},
{
  "pk": 39,
  "fields": {
    "nombre": "Angel\u00f3polis",
    "latitud": 6.1333333,
    "departamento": 2,
    "codigo": "05036",
    "longitud": -75.7
  },
  "model": "entidades.ciudad"
},
{
  "pk": 40,
  "fields": {
    "nombre": "Angostura",
    "latitud": 6.8666667,
    "departamento": 2,
    "codigo": "05038",
    "longitud": -75.3333333
  },
  "model": "entidades.ciudad"
},
{
  "pk": 41,
  "fields": {
    "nombre": "Anolaima",
    "latitud": 4.8333333,
    "departamento": 13,
    "codigo": "25040",
    "longitud": -74.5
  },
  "model": "entidades.ciudad"
},
{
  "pk": 42,
  "fields": {
    "nombre": "Anor\u00ed",
    "latitud": 7.1666667,
    "departamento": 2,
    "codigo": "05040",
    "longitud": -75.0833333
  },
  "model": "entidades.ciudad"
},
{
  "pk": 43,
  "fields": {
    "nombre": "Anserma",
    "latitud": 5.25,
    "departamento": 7,
    "codigo": "17042",
    "longitud": -75.75
  },
  "model": "entidades.ciudad"
},
{
  "pk": 44,
  "fields": {
    "nombre": "Ansermanuevo",
    "latitud": 4.7972222,
    "departamento": 30,
    "codigo": "76041",
    "longitud": -75.995
  },
  "model": "entidades.ciudad"
},
{
  "pk": 45,
  "fields": {
    "nombre": "Anzo\u00e1tegui",
    "latitud": 4.6666667,
    "departamento": 29,
    "codigo": "73043",
    "longitud": -75.25
  },
  "model": "entidades.ciudad"
},
{
  "pk": 46,
  "fields": {
    "nombre": "Anz\u00e1",
    "latitud": 6.3333333,
    "departamento": 2,
    "codigo": "05044",
    "longitud": -75.9166667
  },
  "model": "entidades.ciudad"
},
{
  "pk": 47,
  "fields": {
    "nombre": "Apartad\u00f3",
    "latitud": 7.8855556,
    "departamento": 2,
    "codigo": "05045",
    "longitud": -76.6347222
  },
  "model": "entidades.ciudad"
},
{
  "pk": 48,
  "fields": {
    "nombre": "Apulo",
    "latitud": 4.5833333,
    "departamento": 13,
    "codigo": "25599",
    "longitud": -74.5833333
  },
  "model": "entidades.ciudad"
},
{
  "pk": 49,
  "fields": {
    "nombre": "Ap\u00eda",
    "latitud": 5.1666667,
    "departamento": 25,
    "codigo": "66045",
    "longitud": -76.0
  },
  "model": "entidades.ciudad"
},
{
  "pk": 50,
  "fields": {
    "nombre": "Aquitania",
    "latitud": 5.5197222,
    "departamento": 6,
    "codigo": "15047",
    "longitud": -72.8875
  },
  "model": "entidades.ciudad"
},
{
  "pk": 51,
  "fields": {
    "nombre": "Aracataca",
    "latitud": 10.5833333,
    "departamento": 19,
    "codigo": "47053",
    "longitud": -74.0
  },
  "model": "entidades.ciudad"
},
{
  "pk": 52,
  "fields": {
    "nombre": "Aranzazu",
    "latitud": 5.3,
    "departamento": 7,
    "codigo": "17050",
    "longitud": -75.45
  },
  "model": "entidades.ciudad"
},
{
  "pk": 53,
  "fields": {
    "nombre": "Aratoca",
    "latitud": 6.8333333,
    "departamento": 27,
    "codigo": "68051",
    "longitud": -72.9666667
  },
  "model": "entidades.ciudad"
},
{
  "pk": 54,
  "fields": {
    "nombre": "Arauca",
    "latitud": 7.0902778,
    "departamento": 3,
    "codigo": "81001",
    "longitud": -70.7616667
  },
  "model": "entidades.ciudad"
},
{
  "pk": 55,
  "fields": {
    "nombre": "Arauquita",
    "latitud": 6.8219444,
    "departamento": 3,
    "codigo": "81065",
    "longitud": -71.3236111
  },
  "model": "entidades.ciudad"
},
{
  "pk": 56,
  "fields": {
    "nombre": "Arbel\u00e1ez",
    "latitud": 4.3,
    "departamento": 13,
    "codigo": "25053",
    "longitud": -74.5833333
  },
  "model": "entidades.ciudad"
},
{
  "pk": 57,
  "fields": {
    "nombre": "Arboleda (Berruecos)",
    "latitud": 1.5033333,
    "departamento": 21,
    "codigo": "52051",
    "longitud": -77.0877778
  },
  "model": "entidades.ciudad"
},
{
  "pk": 58,
  "fields": {
    "nombre": "Arboledas",
    "latitud": 7.6666667,
    "departamento": 22,
    "codigo": "54051",
    "longitud": -72.75
  },
  "model": "entidades.ciudad"
},
{
  "pk": 59,
  "fields": {
    "nombre": "Arboletes",
    "latitud": 8.5,
    "departamento": 2,
    "codigo": "05051",
    "longitud": -76.4166667
  },
  "model": "entidades.ciudad"
},
{
  "pk": 60,
  "fields": {
    "nombre": "Arcabuco",
    "latitud": 5.8,
    "departamento": 6,
    "codigo": "15051",
    "longitud": -73.3833333
  },
  "model": "entidades.ciudad"
},
{
  "pk": 61,
  "fields": {
    "nombre": "Arenal",
    "latitud": 8.4666667,
    "departamento": 5,
    "codigo": "13042",
    "longitud": -73.95
  },
  "model": "entidades.ciudad"
},
{
  "pk": 62,
  "fields": {
    "nombre": "Argelia",
    "latitud": 5.7341667,
    "departamento": 2,
    "codigo": "05055",
    "longitud": -75.1463889
  },
  "model": "entidades.ciudad"
},
{
  "pk": 63,
  "fields": {
    "nombre": "Argelia",
    "latitud": 2.2666667,
    "departamento": 10,
    "codigo": "19050",
    "longitud": -77.25
  },
  "model": "entidades.ciudad"
},
{
  "pk": 64,
  "fields": {
    "nombre": "Argelia",
    "latitud": 4.7,
    "departamento": 30,
    "codigo": "76054",
    "longitud": -76.1333333
  },
  "model": "entidades.ciudad"
},
{
  "pk": 65,
  "fields": {
    "nombre": "Ariguan\u00ed (El Dif\u00edcil)",
    "latitud": 10.25,
    "departamento": 19,
    "codigo": "47058",
    "longitud": -74.0
  },
  "model": "entidades.ciudad"
},
{
  "pk": 66,
  "fields": {
    "nombre": "Arjona",
    "latitud": 10.1666667,
    "departamento": 5,
    "codigo": "13052",
    "longitud": -75.3333333
  },
  "model": "entidades.ciudad"
},
{
  "pk": 67,
  "fields": {
    "nombre": "Armenia",
    "latitud": 6.1666667,
    "departamento": 2,
    "codigo": "05059",
    "longitud": -75.8333333
  },
  "model": "entidades.ciudad"
},
{
  "pk": 68,
  "fields": {
    "nombre": "Armenia",
    "latitud": 4.5338889,
    "departamento": 24,
    "codigo": "63001",
    "longitud": -75.6811111
  },
  "model": "entidades.ciudad"
},
{
  "pk": 69,
  "fields": {
    "nombre": "Armero (Guayabal)",
    "latitud": 5.0833333,
    "departamento": 29,
    "codigo": "73055",
    "longitud": -74.8333333
  },
  "model": "entidades.ciudad"
},
{
  "pk": 70,
  "fields": {
    "nombre": "Arroyohondo",
    "latitud": 10.2497222,
    "departamento": 5,
    "codigo": "13062",
    "longitud": -75.0113889
  },
  "model": "entidades.ciudad"
},
{
  "pk": 71,
  "fields": {
    "nombre": "Astrea",
    "latitud": 9.5011111,
    "departamento": 11,
    "codigo": "20032",
    "longitud": -73.9802778
  },
  "model": "entidades.ciudad"
},
{
  "pk": 72,
  "fields": {
    "nombre": "Ataco",
    "latitud": 3.3333333,
    "departamento": 29,
    "codigo": "73067",
    "longitud": -75.6666667
  },
  "model": "entidades.ciudad"
},
{
  "pk": 73,
  "fields": {
    "nombre": "Atrato (Yuto)",
    "latitud": 5.5333333,
    "departamento": 12,
    "codigo": "27050",
    "longitud": -76.6333333
  },
  "model": "entidades.ciudad"
},
{
  "pk": 74,
  "fields": {
    "nombre": "Ayapel",
    "latitud": 8.25,
    "departamento": 14,
    "codigo": "23068",
    "longitud": -75.25
  },
  "model": "entidades.ciudad"
},
{
  "pk": 75,
  "fields": {
    "nombre": "Bagad\u00f3",
    "latitud": 5.5,
    "departamento": 12,
    "codigo": "27073",
    "longitud": -76.25
  },
  "model": "entidades.ciudad"
},
{
  "pk": 76,
  "fields": {
    "nombre": "Bah\u00eda Solano (M\u00fatis)",
    "latitud": 6.2191667,
    "departamento": 12,
    "codigo": "27075",
    "longitud": -77.4077778
  },
  "model": "entidades.ciudad"
},
{
  "pk": 77,
  "fields": {
    "nombre": "Bajo Baud\u00f3 (Pizarro)",
    "latitud": 5.0,
    "departamento": 12,
    "codigo": "27077",
    "longitud": -77.0833333
  },
  "model": "entidades.ciudad"
},
{
  "pk": 78,
  "fields": {
    "nombre": "Balboa",
    "latitud": 2.1,
    "departamento": 10,
    "codigo": "19075",
    "longitud": -77.2
  },
  "model": "entidades.ciudad"
},
{
  "pk": 79,
  "fields": {
    "nombre": "Balboa",
    "latitud": 4.9166667,
    "departamento": 25,
    "codigo": "66075",
    "longitud": -75.95
  },
  "model": "entidades.ciudad"
},
{
  "pk": 80,
  "fields": {
    "nombre": "Baranoa",
    "latitud": 10.8,
    "departamento": 4,
    "codigo": "08078",
    "longitud": -74.9166667
  },
  "model": "entidades.ciudad"
},
{
  "pk": 81,
  "fields": {
    "nombre": "Baraya",
    "latitud": 3.1666667,
    "departamento": 17,
    "codigo": "41078",
    "longitud": -75.0
  },
  "model": "entidades.ciudad"
},
{
  "pk": 82,
  "fields": {
    "nombre": "Barbacoas",
    "latitud": 1.5833333,
    "departamento": 21,
    "codigo": "52079",
    "longitud": -78.0
  },
  "model": "entidades.ciudad"
},
{
  "pk": 83,
  "fields": {
    "nombre": "Barbosa",
    "latitud": 6.45,
    "departamento": 2,
    "codigo": "05079",
    "longitud": -75.3333333
  },
  "model": "entidades.ciudad"
},
{
  "pk": 84,
  "fields": {
    "nombre": "Barbosa",
    "latitud": 6.0,
    "departamento": 27,
    "codigo": "68077",
    "longitud": -73.55
  },
  "model": "entidades.ciudad"
},
{
  "pk": 85,
  "fields": {
    "nombre": "Barichara",
    "latitud": 6.75,
    "departamento": 27,
    "codigo": "68079",
    "longitud": -73.1666667
  },
  "model": "entidades.ciudad"
},
{
  "pk": 86,
  "fields": {
    "nombre": "Barranca de Up\u00eda",
    "latitud": 4.5755556,
    "departamento": 20,
    "codigo": "50110",
    "longitud": -72.9611111
  },
  "model": "entidades.ciudad"
},
{
  "pk": 87,
  "fields": {
    "nombre": "Barrancabermeja",
    "latitud": 7.0652778,
    "departamento": 27,
    "codigo": "68081",
    "longitud": -73.8547222
  },
  "model": "entidades.ciudad"
},
{
  "pk": 88,
  "fields": {
    "nombre": "Barrancas",
    "latitud": null,
    "departamento": 18,
    "codigo": "44078",
    "longitud": -72.75
  },
  "model": "entidades.ciudad"
},
{
  "pk": 89,
  "fields": {
    "nombre": "Barranco de Loba",
    "latitud": 8.8333333,
    "departamento": 5,
    "codigo": "13074",
    "longitud": -74.1666667
  },
  "model": "entidades.ciudad"
},
{
  "pk": 90,
  "fields": {
    "nombre": "Barranquilla",
    "latitud": 10.9638889,
    "departamento": 4,
    "codigo": "08001",
    "longitud": -74.7963889
  },
  "model": "entidades.ciudad"
},
{
  "pk": 91,
  "fields": {
    "nombre": "Becerr\u00edl",
    "latitud": 9.705,
    "departamento": 11,
    "codigo": "20045",
    "longitud": -73.2847222
  },
  "model": "entidades.ciudad"
},
{
  "pk": 92,
  "fields": {
    "nombre": "Belalc\u00e1zar",
    "latitud": 5.0,
    "departamento": 7,
    "codigo": "17088",
    "longitud": -75.8333333
  },
  "model": "entidades.ciudad"
},
{
  "pk": 93,
  "fields": {
    "nombre": "Bello",
    "latitud": 6.3388889,
    "departamento": 2,
    "codigo": "05088",
    "longitud": -75.5622222
  },
  "model": "entidades.ciudad"
},
{
  "pk": 94,
  "fields": {
    "nombre": "Belmira",
    "latitud": 6.6666667,
    "departamento": 2,
    "codigo": "05086",
    "longitud": -75.6666667
  },
  "model": "entidades.ciudad"
},
{
  "pk": 95,
  "fields": {
    "nombre": "Beltr\u00e1n",
    "latitud": 4.8,
    "departamento": 13,
    "codigo": "25086",
    "longitud": -74.75
  },
  "model": "entidades.ciudad"
},
{
  "pk": 96,
  "fields": {
    "nombre": "Bel\u00e9n",
    "latitud": 6.0833333,
    "departamento": 6,
    "codigo": "15087",
    "longitud": -72.9166667
  },
  "model": "entidades.ciudad"
},
{
  "pk": 97,
  "fields": {
    "nombre": "Bel\u00e9n",
    "latitud": 1.5975,
    "departamento": 21,
    "codigo": "52083",
    "longitud": -77.0175
  },
  "model": "entidades.ciudad"
},
{
  "pk": 98,
  "fields": {
    "nombre": "Bel\u00e9n de Bajir\u00e1",
    "latitud": 7.3725,
    "departamento": 12,
    "codigo": "27086",
    "longitud": -76.7147222
  },
  "model": "entidades.ciudad"
},
{
  "pk": 99,
  "fields": {
    "nombre": "Bel\u00e9n de Umbr\u00eda",
    "latitud": 5.25,
    "departamento": 25,
    "codigo": "66088",
    "longitud": -75.9166667
  },
  "model": "entidades.ciudad"
},
{
  "pk": 100,
  "fields": {
    "nombre": "Bel\u00e9n de los Andaqu\u00edes",
    "latitud": 1.4166667,
    "departamento": 8,
    "codigo": "18094",
    "longitud": -75.9166667
  },
  "model": "entidades.ciudad"
},
{
  "pk": 101,
  "fields": {
    "nombre": "Berbeo",
    "latitud": 5.3333333,
    "departamento": 6,
    "codigo": "15090",
    "longitud": -73.0
  },
  "model": "entidades.ciudad"
},
{
  "pk": 102,
  "fields": {
    "nombre": "Betania",
    "latitud": 5.75,
    "departamento": 2,
    "codigo": "05091",
    "longitud": -75.9666667
  },
  "model": "entidades.ciudad"
},
{
  "pk": 103,
  "fields": {
    "nombre": "Beteitiva",
    "latitud": 6.0,
    "departamento": 6,
    "codigo": "15092",
    "longitud": -72.8333333
  },
  "model": "entidades.ciudad"
},
{
  "pk": 104,
  "fields": {
    "nombre": "Betulia",
    "latitud": 6.2,
    "departamento": 2,
    "codigo": "05093",
    "longitud": -75.9166667
  },
  "model": "entidades.ciudad"
},
{
  "pk": 105,
  "fields": {
    "nombre": "Betulia",
    "latitud": 7.0833333,
    "departamento": 27,
    "codigo": "68092",
    "longitud": -73.3333333
  },
  "model": "entidades.ciudad"
},
{
  "pk": 106,
  "fields": {
    "nombre": "Bituima",
    "latitud": 4.9166667,
    "departamento": 13,
    "codigo": "25095",
    "longitud": -74.55
  },
  "model": "entidades.ciudad"
},
{
  "pk": 107,
  "fields": {
    "nombre": "Boavita",
    "latitud": 6.4166667,
    "departamento": 6,
    "codigo": "15097",
    "longitud": -72.5833333
  },
  "model": "entidades.ciudad"
},
{
  "pk": 108,
  "fields": {
    "nombre": "Bochalema",
    "latitud": 7.6666667,
    "departamento": 22,
    "codigo": "54099",
    "longitud": -72.5833333
  },
  "model": "entidades.ciudad"
},
{
  "pk": 109,
  "fields": {
    "nombre": "Bogot\u00e1 D.C.",
    "latitud": 4.6,
    "departamento": 13,
    "codigo": "11001",
    "longitud": -74.0833333
  },
  "model": "entidades.ciudad"
},
{
  "pk": 110,
  "fields": {
    "nombre": "Bojac\u00e1",
    "latitud": 4.75,
    "departamento": 13,
    "codigo": "25099",
    "longitud": -74.3333333
  },
  "model": "entidades.ciudad"
},
{
  "pk": 111,
  "fields": {
    "nombre": "Bojay\u00e1 (Bellavista)",
    "latitud": 6.5236111,
    "departamento": 12,
    "codigo": "27099",
    "longitud": -76.9744444
  },
  "model": "entidades.ciudad"
},
{
  "pk": 112,
  "fields": {
    "nombre": "Bol\u00edvar",
    "latitud": 5.8333333,
    "departamento": 2,
    "codigo": "05101",
    "longitud": -76.0
  },
  "model": "entidades.ciudad"
},
{
  "pk": 113,
  "fields": {
    "nombre": "Bol\u00edvar",
    "latitud": 1.8333333,
    "departamento": 10,
    "codigo": "19100",
    "longitud": -76.9166667
  },
  "model": "entidades.ciudad"
},
{
  "pk": 114,
  "fields": {
    "nombre": "Bol\u00edvar",
    "latitud": 6.25,
    "departamento": 27,
    "codigo": "68101",
    "longitud": -74.0
  },
  "model": "entidades.ciudad"
},
{
  "pk": 115,
  "fields": {
    "nombre": "Bol\u00edvar",
    "latitud": 4.3333333,
    "departamento": 30,
    "codigo": "76100",
    "longitud": -76.3333333
  },
  "model": "entidades.ciudad"
},
{
  "pk": 116,
  "fields": {
    "nombre": "Bosconia",
    "latitud": 9.9761111,
    "departamento": 11,
    "codigo": "20060",
    "longitud": -73.8902778
  },
  "model": "entidades.ciudad"
},
{
  "pk": 117,
  "fields": {
    "nombre": "Boyac\u00e1",
    "latitud": 5.5,
    "departamento": 6,
    "codigo": "15104",
    "longitud": -72.5
  },
  "model": "entidades.ciudad"
},
{
  "pk": 118,
  "fields": {
    "nombre": "Brice\u00f1o",
    "latitud": 7.1122222,
    "departamento": 2,
    "codigo": "05107",
    "longitud": -75.5541667
  },
  "model": "entidades.ciudad"
},
{
  "pk": 119,
  "fields": {
    "nombre": "Brice\u00f1o",
    "latitud": 5.75,
    "departamento": 6,
    "codigo": "15106",
    "longitud": -73.8333333
  },
  "model": "entidades.ciudad"
},
{
  "pk": 120,
  "fields": {
    "nombre": "Bucaramanga",
    "latitud": 7.1297222,
    "departamento": 27,
    "codigo": "68001",
    "longitud": -73.1258333
  },
  "model": "entidades.ciudad"
},
{
  "pk": 121,
  "fields": {
    "nombre": "Bucarasica",
    "latitud": 8.0833333,
    "departamento": 22,
    "codigo": "54109",
    "longitud": -73.0
  },
  "model": "entidades.ciudad"
},
{
  "pk": 122,
  "fields": {
    "nombre": "Buenaventura",
    "latitud": 3.8933333,
    "departamento": 30,
    "codigo": "76109",
    "longitud": -77.0697222
  },
  "model": "entidades.ciudad"
},
{
  "pk": 123,
  "fields": {
    "nombre": "Buenavista",
    "latitud": 5.5,
    "departamento": 6,
    "codigo": "15109",
    "longitud": -73.9666667
  },
  "model": "entidades.ciudad"
},
{
  "pk": 124,
  "fields": {
    "nombre": "Buenavista",
    "latitud": 8.7575,
    "departamento": 14,
    "codigo": "23079",
    "longitud": -75.89
  },
  "model": "entidades.ciudad"
},
{
  "pk": 125,
  "fields": {
    "nombre": "Buenavista",
    "latitud": 4.3622222,
    "departamento": 24,
    "codigo": "63111",
    "longitud": -75.7394444
  },
  "model": "entidades.ciudad"
},
{
  "pk": 126,
  "fields": {
    "nombre": "Buenavista",
    "latitud": 9.3222222,
    "departamento": 28,
    "codigo": "70110",
    "longitud": -74.9772222
  },
  "model": "entidades.ciudad"
},
{
  "pk": 127,
  "fields": {
    "nombre": "Buenos Aires",
    "latitud": 2.9166667,
    "departamento": 10,
    "codigo": "19110",
    "longitud": -76.6666667
  },
  "model": "entidades.ciudad"
},
{
  "pk": 128,
  "fields": {
    "nombre": "Buesaco",
    "latitud": 1.25,
    "departamento": 21,
    "codigo": "52110",
    "longitud": -77.0833333
  },
  "model": "entidades.ciudad"
},
{
  "pk": 129,
  "fields": {
    "nombre": "Guadalajara de Buga",
    "latitud": 3.9022222,
    "departamento": 30,
    "codigo": "76111",
    "longitud": -76.3027778
  },
  "model": "entidades.ciudad"
},
{
  "pk": 130,
  "fields": {
    "nombre": "Bugalagrande",
    "latitud": 4.2094444,
    "departamento": 30,
    "codigo": "76113",
    "longitud": -76.1602778
  },
  "model": "entidades.ciudad"
},
{
  "pk": 131,
  "fields": {
    "nombre": "Bur\u00edtica",
    "latitud": 6.75,
    "departamento": 2,
    "codigo": "05113",
    "longitud": -75.9166667
  },
  "model": "entidades.ciudad"
},
{
  "pk": 132,
  "fields": {
    "nombre": "Busbanza",
    "latitud": 5.9166667,
    "departamento": 6,
    "codigo": "15114",
    "longitud": -72.85
  },
  "model": "entidades.ciudad"
},
{
  "pk": 133,
  "fields": {
    "nombre": "Cabrera",
    "latitud": 3.9780556,
    "departamento": 13,
    "codigo": "25120",
    "longitud": -74.4858333
  },
  "model": "entidades.ciudad"
},
{
  "pk": 134,
  "fields": {
    "nombre": "Cabrera",
    "latitud": 6.6333333,
    "departamento": 27,
    "codigo": "68121",
    "longitud": -73.2
  },
  "model": "entidades.ciudad"
},
{
  "pk": 135,
  "fields": {
    "nombre": "Cabuyaro",
    "latitud": 4.2902778,
    "departamento": 20,
    "codigo": "50124",
    "longitud": -72.7905556
  },
  "model": "entidades.ciudad"
},
{
  "pk": 136,
  "fields": {
    "nombre": "Cachipay",
    "latitud": 5.2666667,
    "departamento": 13,
    "codigo": "25123",
    "longitud": -74.5666667
  },
  "model": "entidades.ciudad"
},
{
  "pk": 137,
  "fields": {
    "nombre": "Caicedo",
    "latitud": 6.45,
    "departamento": 2,
    "codigo": "05125",
    "longitud": -75.9666667
  },
  "model": "entidades.ciudad"
},
{
  "pk": 138,
  "fields": {
    "nombre": "Caicedonia",
    "latitud": 4.33365917459535,
    "departamento": 30,
    "codigo": "76122",
    "longitud": -75.8342456817627
  },
  "model": "entidades.ciudad"
},
{
  "pk": 139,
  "fields": {
    "nombre": "Caimito",
    "latitud": 8.8333333,
    "departamento": 28,
    "codigo": "70124",
    "longitud": -75.1666667
  },
  "model": "entidades.ciudad"
},
{
  "pk": 140,
  "fields": {
    "nombre": "Cajamarca",
    "latitud": 4.4166667,
    "departamento": 29,
    "codigo": "73124",
    "longitud": -75.5
  },
  "model": "entidades.ciudad"
},
{
  "pk": 141,
  "fields": {
    "nombre": "Cajib\u00edo",
    "latitud": 2.6666667,
    "departamento": 10,
    "codigo": "19130",
    "longitud": -76.6666667
  },
  "model": "entidades.ciudad"
},
{
  "pk": 142,
  "fields": {
    "nombre": "Cajic\u00e1",
    "latitud": 5.0,
    "departamento": 13,
    "codigo": "25126",
    "longitud": -74.05
  },
  "model": "entidades.ciudad"
},
{
  "pk": 143,
  "fields": {
    "nombre": "Calamar",
    "latitud": 10.25,
    "departamento": 5,
    "codigo": "13140",
    "longitud": -75.0
  },
  "model": "entidades.ciudad"
},
{
  "pk": 144,
  "fields": {
    "nombre": "Calamar",
    "latitud": 1.9597222,
    "departamento": 16,
    "codigo": "95015",
    "longitud": -72.6538889
  },
  "model": "entidades.ciudad"
},
{
  "pk": 145,
  "fields": {
    "nombre": "Calarc\u00e1",
    "latitud": 4.5325,
    "departamento": 24,
    "codigo": "63130",
    "longitud": -75.6436111
  },
  "model": "entidades.ciudad"
},
{
  "pk": 146,
  "fields": {
    "nombre": "Caldas",
    "latitud": 6.0833333,
    "departamento": 2,
    "codigo": "05129",
    "longitud": -75.6333333
  },
  "model": "entidades.ciudad"
},
{
  "pk": 147,
  "fields": {
    "nombre": "Caldas",
    "latitud": 5.55,
    "departamento": 6,
    "codigo": "15131",
    "longitud": -73.8833333
  },
  "model": "entidades.ciudad"
},
{
  "pk": 148,
  "fields": {
    "nombre": "Caldono",
    "latitud": 2.8333333,
    "departamento": 10,
    "codigo": "19137",
    "longitud": -76.4166667
  },
  "model": "entidades.ciudad"
},
{
  "pk": 149,
  "fields": {
    "nombre": "California",
    "latitud": 7.4166667,
    "departamento": 27,
    "codigo": "68132",
    "longitud": -72.85
  },
  "model": "entidades.ciudad"
},
{
  "pk": 150,
  "fields": {
    "nombre": "Calima el Dari\u00e9n",
    "latitud": 3.9166667,
    "departamento": 30,
    "codigo": "76126",
    "longitud": -76.6666667
  },
  "model": "entidades.ciudad"
},
{
  "pk": 151,
  "fields": {
    "nombre": "Caloto",
    "latitud": 3.0833333,
    "departamento": 10,
    "codigo": "19142",
    "longitud": -76.3333333
  },
  "model": "entidades.ciudad"
},
{
  "pk": 152,
  "fields": {
    "nombre": "Santiago de Cali",
    "latitud": 3.4372222,
    "departamento": 30,
    "codigo": "76001",
    "longitud": -76.5225
  },
  "model": "entidades.ciudad"
},
{
  "pk": 153,
  "fields": {
    "nombre": "Campamento",
    "latitud": 7.0833333,
    "departamento": 2,
    "codigo": "05134",
    "longitud": -75.25
  },
  "model": "entidades.ciudad"
},
{
  "pk": 154,
  "fields": {
    "nombre": "Campo de la Cruz",
    "latitud": 10.4166667,
    "departamento": 4,
    "codigo": "08137",
    "longitud": -74.9166667
  },
  "model": "entidades.ciudad"
},
{
  "pk": 155,
  "fields": {
    "nombre": "Campoalegre",
    "latitud": 2.6666667,
    "departamento": 17,
    "codigo": "41132",
    "longitud": -75.3333333
  },
  "model": "entidades.ciudad"
},
{
  "pk": 156,
  "fields": {
    "nombre": "Campohermoso",
    "latitud": 5.0833333,
    "departamento": 6,
    "codigo": "15135",
    "longitud": -73.0
  },
  "model": "entidades.ciudad"
},
{
  "pk": 157,
  "fields": {
    "nombre": "Canalete",
    "latitud": 8.6761111,
    "departamento": 14,
    "codigo": "23090",
    "longitud": -76.2041667
  },
  "model": "entidades.ciudad"
},
{
  "pk": 158,
  "fields": {
    "nombre": "Candelaria",
    "latitud": 10.5,
    "departamento": 4,
    "codigo": "08141",
    "longitud": -74.8333333
  },
  "model": "entidades.ciudad"
},
{
  "pk": 159,
  "fields": {
    "nombre": "Candelaria",
    "latitud": 3.4130556,
    "departamento": 30,
    "codigo": "76130",
    "longitud": -76.3511111
  },
  "model": "entidades.ciudad"
},
{
  "pk": 160,
  "fields": {
    "nombre": "Cantagallo",
    "latitud": 7.3791667,
    "departamento": 5,
    "codigo": "13160",
    "longitud": -73.9180556
  },
  "model": "entidades.ciudad"
},
{
  "pk": 161,
  "fields": {
    "nombre": "Cant\u00f3n de San Pablo",
    "latitud": 5.3388889,
    "departamento": 12,
    "codigo": "27135",
    "longitud": -76.7313889
  },
  "model": "entidades.ciudad"
},
{
  "pk": 162,
  "fields": {
    "nombre": "Caparrap\u00ed",
    "latitud": 5.4166667,
    "departamento": 13,
    "codigo": "25148",
    "longitud": -74.5833333
  },
  "model": "entidades.ciudad"
},
{
  "pk": 163,
  "fields": {
    "nombre": "Capitanejo",
    "latitud": 6.6,
    "departamento": 27,
    "codigo": "68147",
    "longitud": -72.6333333
  },
  "model": "entidades.ciudad"
},
{
  "pk": 164,
  "fields": {
    "nombre": "Caracol\u00ed",
    "latitud": 6.4119444,
    "departamento": 2,
    "codigo": "05142",
    "longitud": -74.7605556
  },
  "model": "entidades.ciudad"
},
{
  "pk": 165,
  "fields": {
    "nombre": "Caramanta",
    "latitud": 5.5833333,
    "departamento": 2,
    "codigo": "05145",
    "longitud": -75.5833333
  },
  "model": "entidades.ciudad"
},
{
  "pk": 166,
  "fields": {
    "nombre": "Carcas\u00ed",
    "latitud": 6.8333333,
    "departamento": 27,
    "codigo": "68152",
    "longitud": -72.5
  },
  "model": "entidades.ciudad"
},
{
  "pk": 167,
  "fields": {
    "nombre": "Carepa",
    "latitud": 7.7663889,
    "departamento": 2,
    "codigo": "05147",
    "longitud": -76.6611111
  },
  "model": "entidades.ciudad"
},
{
  "pk": 168,
  "fields": {
    "nombre": "Carmen de Apical\u00e1",
    "latitud": 4.15,
    "departamento": 29,
    "codigo": "73148",
    "longitud": -74.7333333
  },
  "model": "entidades.ciudad"
},
{
  "pk": 169,
  "fields": {
    "nombre": "Carmen de Carupa",
    "latitud": 5.3502778,
    "departamento": 13,
    "codigo": "25154",
    "longitud": -73.9052778
  },
  "model": "entidades.ciudad"
},
{
  "pk": 170,
  "fields": {
    "nombre": "Carmen de Viboral",
    "latitud": 6.085,
    "departamento": 2,
    "codigo": "05148",
    "longitud": -75.3386111
  },
  "model": "entidades.ciudad"
},
{
  "pk": 171,
  "fields": {
    "nombre": "Carmen del Dari\u00e9n (CURBARAD\u00d3)",
    "latitud": 7.158,
    "departamento": 12,
    "codigo": "27150",
    "longitud": -76.971
  },
  "model": "entidades.ciudad"
},
{
  "pk": 172,
  "fields": {
    "nombre": "Carolina",
    "latitud": 6.8,
    "departamento": 2,
    "codigo": "05150",
    "longitud": -75.25
  },
  "model": "entidades.ciudad"
},
{
  "pk": 173,
  "fields": {
    "nombre": "Cartagena",
    "latitud": 10.3997222,
    "departamento": 5,
    "codigo": "13001",
    "longitud": -75.5144444
  },
  "model": "entidades.ciudad"
},
{
  "pk": 174,
  "fields": {
    "nombre": "Cartagena del Chair\u00e1",
    "latitud": 1.35,
    "departamento": 8,
    "codigo": "18150",
    "longitud": -74.84
  },
  "model": "entidades.ciudad"
},
{
  "pk": 175,
  "fields": {
    "nombre": "Cartago",
    "latitud": 4.7463889,
    "departamento": 30,
    "codigo": "76147",
    "longitud": -75.9116667
  },
  "model": "entidades.ciudad"
},
{
  "pk": 176,
  "fields": {
    "nombre": "Carur\u00fa",
    "latitud": 0.9166667,
    "departamento": 31,
    "codigo": "97161",
    "longitud": -70.7333333
  },
  "model": "entidades.ciudad"
},
{
  "pk": 177,
  "fields": {
    "nombre": "Casabianca",
    "latitud": 5.0833333,
    "departamento": 29,
    "codigo": "73152",
    "longitud": -75.1666667
  },
  "model": "entidades.ciudad"
},
{
  "pk": 178,
  "fields": {
    "nombre": "Castilla la Nueva",
    "latitud": 3.8,
    "departamento": 20,
    "codigo": "50150",
    "longitud": -73.5833333
  },
  "model": "entidades.ciudad"
},
{
  "pk": 179,
  "fields": {
    "nombre": "Caucasia",
    "latitud": 7.9166667,
    "departamento": 2,
    "codigo": "05154",
    "longitud": -75.0
  },
  "model": "entidades.ciudad"
},
{
  "pk": 180,
  "fields": {
    "nombre": "Ca\u00f1asgordas",
    "latitud": 6.75,
    "departamento": 2,
    "codigo": "05138",
    "longitud": -76.0
  },
  "model": "entidades.ciudad"
},
{
  "pk": 181,
  "fields": {
    "nombre": "Cepita",
    "latitud": 6.8333333,
    "departamento": 27,
    "codigo": "68160",
    "longitud": -72.9166667
  },
  "model": "entidades.ciudad"
},
{
  "pk": 182,
  "fields": {
    "nombre": "Ceret\u00e9",
    "latitud": 8.9166667,
    "departamento": 14,
    "codigo": "23162",
    "longitud": -76.0
  },
  "model": "entidades.ciudad"
},
{
  "pk": 183,
  "fields": {
    "nombre": "Cerinza",
    "latitud": 6.0,
    "departamento": 6,
    "codigo": "15162",
    "longitud": -72.9166667
  },
  "model": "entidades.ciudad"
},
{
  "pk": 184,
  "fields": {
    "nombre": "Cerrito",
    "latitud": 7.0,
    "departamento": 27,
    "codigo": "68162",
    "longitud": -72.5833333
  },
  "model": "entidades.ciudad"
},
{
  "pk": 185,
  "fields": {
    "nombre": "Cerro San Antonio",
    "latitud": 10.25,
    "departamento": 19,
    "codigo": "47161",
    "longitud": -74.8333333
  },
  "model": "entidades.ciudad"
},
{
  "pk": 186,
  "fields": {
    "nombre": "Chachagu\u00ed",
    "latitud": 1.35943053925138,
    "departamento": 21,
    "codigo": "52240",
    "longitud": -77.2836685180664
  },
  "model": "entidades.ciudad"
},
{
  "pk": 187,
  "fields": {
    "nombre": "Chaguan\u00ed",
    "latitud": 5.0,
    "departamento": 13,
    "codigo": "25168",
    "longitud": -74.65
  },
  "model": "entidades.ciudad"
},
{
  "pk": 188,
  "fields": {
    "nombre": "Chal\u00e1n",
    "latitud": 9.5491667,
    "departamento": 28,
    "codigo": "70230",
    "longitud": -75.3161111
  },
  "model": "entidades.ciudad"
},
{
  "pk": 189,
  "fields": {
    "nombre": "Chaparral",
    "latitud": 3.75,
    "departamento": 29,
    "codigo": "73168",
    "longitud": -75.5833333
  },
  "model": "entidades.ciudad"
},
{
  "pk": 190,
  "fields": {
    "nombre": "Charal\u00e1",
    "latitud": 6.25,
    "departamento": 27,
    "codigo": "68167",
    "longitud": -73.0833333
  },
  "model": "entidades.ciudad"
},
{
  "pk": 191,
  "fields": {
    "nombre": "Charta",
    "latitud": 7.3,
    "departamento": 27,
    "codigo": "68169",
    "longitud": -72.9666667
  },
  "model": "entidades.ciudad"
},
{
  "pk": 192,
  "fields": {
    "nombre": "Chigorod\u00f3",
    "latitud": 7.6666667,
    "departamento": 2,
    "codigo": "05172",
    "longitud": -76.6666667
  },
  "model": "entidades.ciudad"
},
{
  "pk": 193,
  "fields": {
    "nombre": "Chima",
    "latitud": 6.4166667,
    "departamento": 27,
    "codigo": "68176",
    "longitud": -73.3333333
  },
  "model": "entidades.ciudad"
},
{
  "pk": 194,
  "fields": {
    "nombre": "Chimichagua",
    "latitud": 9.2577778,
    "departamento": 11,
    "codigo": "20175",
    "longitud": -73.8177778
  },
  "model": "entidades.ciudad"
},
{
  "pk": 195,
  "fields": {
    "nombre": "Chim\u00e1",
    "latitud": 9.0833333,
    "departamento": 14,
    "codigo": "23168",
    "longitud": -75.6333333
  },
  "model": "entidades.ciudad"
},
{
  "pk": 196,
  "fields": {
    "nombre": "Chinavita",
    "latitud": 5.25,
    "departamento": 6,
    "codigo": "15172",
    "longitud": -73.3333333
  },
  "model": "entidades.ciudad"
},
{
  "pk": 197,
  "fields": {
    "nombre": "Chinchin\u00e1",
    "latitud": 5.0,
    "departamento": 7,
    "codigo": "17174",
    "longitud": -75.6666667
  },
  "model": "entidades.ciudad"
},
{
  "pk": 198,
  "fields": {
    "nombre": "Chin\u00e1cota",
    "latitud": 7.75,
    "departamento": 22,
    "codigo": "54172",
    "longitud": -72.55
  },
  "model": "entidades.ciudad"
},
{
  "pk": 199,
  "fields": {
    "nombre": "Chin\u00fa",
    "latitud": 9.0833333,
    "departamento": 14,
    "codigo": "23182",
    "longitud": -75.3333333
  },
  "model": "entidades.ciudad"
},
{
  "pk": 200,
  "fields": {
    "nombre": "Chipaque",
    "latitud": 4.5,
    "departamento": 13,
    "codigo": "25178",
    "longitud": -74.0833333
  },
  "model": "entidades.ciudad"
},
{
  "pk": 201,
  "fields": {
    "nombre": "Chipat\u00e1",
    "latitud": 6.1333333,
    "departamento": 27,
    "codigo": "68179",
    "longitud": -73.55
  },
  "model": "entidades.ciudad"
},
{
  "pk": 202,
  "fields": {
    "nombre": "Chiquinquir\u00e1",
    "latitud": 5.6333333,
    "departamento": 6,
    "codigo": "15176",
    "longitud": -73.75
  },
  "model": "entidades.ciudad"
},
{
  "pk": 203,
  "fields": {
    "nombre": "Chiriguan\u00e1",
    "latitud": 9.5,
    "departamento": 11,
    "codigo": "20178",
    "longitud": -73.4166667
  },
  "model": "entidades.ciudad"
},
{
  "pk": 204,
  "fields": {
    "nombre": "Chiscas",
    "latitud": 6.75,
    "departamento": 6,
    "codigo": "15180",
    "longitud": -72.3333333
  },
  "model": "entidades.ciudad"
},
{
  "pk": 205,
  "fields": {
    "nombre": "Chita",
    "latitud": 6.1666667,
    "departamento": 6,
    "codigo": "15183",
    "longitud": -72.4166667
  },
  "model": "entidades.ciudad"
},
{
  "pk": 206,
  "fields": {
    "nombre": "Chitag\u00e1",
    "latitud": 7.1666667,
    "departamento": 22,
    "codigo": "54174",
    "longitud": -72.5833333
  },
  "model": "entidades.ciudad"
},
{
  "pk": 207,
  "fields": {
    "nombre": "Chitaraque",
    "latitud": 6.0833333,
    "departamento": 6,
    "codigo": "15185",
    "longitud": -73.3666667
  },
  "model": "entidades.ciudad"
},
{
  "pk": 208,
  "fields": {
    "nombre": "Chivat\u00e1",
    "latitud": 5.5333333,
    "departamento": 6,
    "codigo": "15187",
    "longitud": -73.2666667
  },
  "model": "entidades.ciudad"
},
{
  "pk": 209,
  "fields": {
    "nombre": "Chivolo",
    "latitud": 10.0280556,
    "departamento": 19,
    "codigo": "47170",
    "longitud": -74.6436111
  },
  "model": "entidades.ciudad"
},
{
  "pk": 210,
  "fields": {
    "nombre": "Choach\u00ed",
    "latitud": 4.5833333,
    "departamento": 13,
    "codigo": "25181",
    "longitud": -73.9166667
  },
  "model": "entidades.ciudad"
},
{
  "pk": 211,
  "fields": {
    "nombre": "Chocont\u00e1",
    "latitud": 5.1666667,
    "departamento": 13,
    "codigo": "25183",
    "longitud": -73.6666667
  },
  "model": "entidades.ciudad"
},
{
  "pk": 212,
  "fields": {
    "nombre": "Ch\u00e1meza",
    "latitud": 5.0,
    "departamento": 9,
    "codigo": "85015",
    "longitud": -72.75
  },
  "model": "entidades.ciudad"
},
{
  "pk": 213,
  "fields": {
    "nombre": "Ch\u00eda",
    "latitud": 4.9166667,
    "departamento": 13,
    "codigo": "25175",
    "longitud": -74.05
  },
  "model": "entidades.ciudad"
},
{
  "pk": 214,
  "fields": {
    "nombre": "Ch\u00edquiza",
    "latitud": 5.6083333,
    "departamento": 6,
    "codigo": "15232",
    "longitud": -73.4886111
  },
  "model": "entidades.ciudad"
},
{
  "pk": 215,
  "fields": {
    "nombre": "Ch\u00edvor",
    "latitud": 4.8855556,
    "departamento": 6,
    "codigo": "15236",
    "longitud": -73.3688889
  },
  "model": "entidades.ciudad"
},
{
  "pk": 216,
  "fields": {
    "nombre": "Cicuco",
    "latitud": 9.4166667,
    "departamento": 5,
    "codigo": "13188",
    "longitud": -74.7333333
  },
  "model": "entidades.ciudad"
},
{
  "pk": 217,
  "fields": {
    "nombre": "Cimitarra",
    "latitud": 6.3161111,
    "departamento": 27,
    "codigo": "68190",
    "longitud": -73.9505556
  },
  "model": "entidades.ciudad"
},
{
  "pk": 218,
  "fields": {
    "nombre": "Circasia",
    "latitud": 4.6166667,
    "departamento": 24,
    "codigo": "63190",
    "longitud": -75.6333333
  },
  "model": "entidades.ciudad"
},
{
  "pk": 219,
  "fields": {
    "nombre": "Cisneros",
    "latitud": 6.5833333,
    "departamento": 2,
    "codigo": "05190",
    "longitud": -75.0833333
  },
  "model": "entidades.ciudad"
},
{
  "pk": 220,
  "fields": {
    "nombre": "Ci\u00e9naga",
    "latitud": 5.4666667,
    "departamento": 6,
    "codigo": "15189",
    "longitud": -73.25
  },
  "model": "entidades.ciudad"
},
{
  "pk": 221,
  "fields": {
    "nombre": "Ci\u00e9naga",
    "latitud": 10.8333333,
    "departamento": 19,
    "codigo": "47189",
    "longitud": -74.0833333
  },
  "model": "entidades.ciudad"
},
{
  "pk": 222,
  "fields": {
    "nombre": "Ci\u00e9naga de Oro",
    "latitud": 8.8333333,
    "departamento": 14,
    "codigo": "23189",
    "longitud": -75.6666667
  },
  "model": "entidades.ciudad"
},
{
  "pk": 223,
  "fields": {
    "nombre": "Clemencia",
    "latitud": 10.5891667,
    "departamento": 5,
    "codigo": "13222",
    "longitud": -75.3341667
  },
  "model": "entidades.ciudad"
},
{
  "pk": 224,
  "fields": {
    "nombre": "Cocorn\u00e1",
    "latitud": 6.0,
    "departamento": 2,
    "codigo": "05197",
    "longitud": -75.0
  },
  "model": "entidades.ciudad"
},
{
  "pk": 225,
  "fields": {
    "nombre": "Coello",
    "latitud": 4.3333333,
    "departamento": 29,
    "codigo": "73200",
    "longitud": -74.9166667
  },
  "model": "entidades.ciudad"
},
{
  "pk": 226,
  "fields": {
    "nombre": "Cogua",
    "latitud": 5.15,
    "departamento": 13,
    "codigo": "25200",
    "longitud": -73.9666667
  },
  "model": "entidades.ciudad"
},
{
  "pk": 227,
  "fields": {
    "nombre": "Colombia",
    "latitud": 2.5,
    "departamento": 17,
    "codigo": "41206",
    "longitud": -75.75
  },
  "model": "entidades.ciudad"
},
{
  "pk": 228,
  "fields": {
    "nombre": "Colos\u00f3 (Ricaurte)",
    "latitud": 9.4966667,
    "departamento": 28,
    "codigo": "70204",
    "longitud": -75.3555556
  },
  "model": "entidades.ciudad"
},
{
  "pk": 229,
  "fields": {
    "nombre": "Col\u00f3n",
    "latitud": 1.1936111,
    "departamento": 23,
    "codigo": "86219",
    "longitud": -76.9769444
  },
  "model": "entidades.ciudad"
},
{
  "pk": 230,
  "fields": {
    "nombre": "Col\u00f3n (G\u00e9nova)",
    "latitud": 1.5833333,
    "departamento": 21,
    "codigo": "52203",
    "longitud": -77.0
  },
  "model": "entidades.ciudad"
},
{
  "pk": 231,
  "fields": {
    "nombre": "Concepci\u00f3n",
    "latitud": 6.4166667,
    "departamento": 2,
    "codigo": "05206",
    "longitud": -75.25
  },
  "model": "entidades.ciudad"
},
{
  "pk": 232,
  "fields": {
    "nombre": "Concepci\u00f3n",
    "latitud": 6.9166667,
    "departamento": 27,
    "codigo": "68207",
    "longitud": -72.5
  },
  "model": "entidades.ciudad"
},
{
  "pk": 233,
  "fields": {
    "nombre": "Concordia",
    "latitud": 6.0833333,
    "departamento": 2,
    "codigo": "05209",
    "longitud": -75.9166667
  },
  "model": "entidades.ciudad"
},
{
  "pk": 234,
  "fields": {
    "nombre": "Concordia",
    "latitud": 9.8402778,
    "departamento": 19,
    "codigo": "47205",
    "longitud": -74.4447222
  },
  "model": "entidades.ciudad"
},
{
  "pk": 235,
  "fields": {
    "nombre": "Condoto",
    "latitud": 5.1666667,
    "departamento": 12,
    "codigo": "27205",
    "longitud": -76.5
  },
  "model": "entidades.ciudad"
},
{
  "pk": 236,
  "fields": {
    "nombre": "Confines",
    "latitud": 6.4166667,
    "departamento": 27,
    "codigo": "68209",
    "longitud": -73.1666667
  },
  "model": "entidades.ciudad"
},
{
  "pk": 237,
  "fields": {
    "nombre": "Consaca",
    "latitud": 1.20840649727186,
    "departamento": 21,
    "codigo": "52207",
    "longitud": -77.4632263183594
  },
  "model": "entidades.ciudad"
},
{
  "pk": 238,
  "fields": {
    "nombre": "Contadero",
    "latitud": 0.9166667,
    "departamento": 21,
    "codigo": "52210",
    "longitud": -77.5333333
  },
  "model": "entidades.ciudad"
},
{
  "pk": 239,
  "fields": {
    "nombre": "Contrataci\u00f3n",
    "latitud": 6.3333333,
    "departamento": 27,
    "codigo": "68211",
    "longitud": -73.4166667
  },
  "model": "entidades.ciudad"
},
{
  "pk": 240,
  "fields": {
    "nombre": "Convenci\u00f3n",
    "latitud": 8.8333333,
    "departamento": 22,
    "codigo": "54206",
    "longitud": -73.2
  },
  "model": "entidades.ciudad"
},
{
  "pk": 241,
  "fields": {
    "nombre": "Copacabana",
    "latitud": 6.3333333,
    "departamento": 2,
    "codigo": "05212",
    "longitud": -75.5
  },
  "model": "entidades.ciudad"
},
{
  "pk": 242,
  "fields": {
    "nombre": "Coper",
    "latitud": 5.4333333,
    "departamento": 6,
    "codigo": "15212",
    "longitud": -74.0333333
  },
  "model": "entidades.ciudad"
},
{
  "pk": 243,
  "fields": {
    "nombre": "Cordob\u00e1",
    "latitud": 4.3905556,
    "departamento": 24,
    "codigo": "63212",
    "longitud": -75.6888889
  },
  "model": "entidades.ciudad"
},
{
  "pk": 244,
  "fields": {
    "nombre": "Corinto",
    "latitud": 3.1666667,
    "departamento": 10,
    "codigo": "19212",
    "longitud": -76.2
  },
  "model": "entidades.ciudad"
},
{
  "pk": 245,
  "fields": {
    "nombre": "Coromoro",
    "latitud": 6.3333333,
    "departamento": 27,
    "codigo": "68217",
    "longitud": -73.0
  },
  "model": "entidades.ciudad"
},
{
  "pk": 246,
  "fields": {
    "nombre": "Corozal",
    "latitud": 9.3333333,
    "departamento": 28,
    "codigo": "70215",
    "longitud": -75.25
  },
  "model": "entidades.ciudad"
},
{
  "pk": 247,
  "fields": {
    "nombre": "Corrales",
    "latitud": 5.8666667,
    "departamento": 6,
    "codigo": "15215",
    "longitud": -72.8333333
  },
  "model": "entidades.ciudad"
},
{
  "pk": 248,
  "fields": {
    "nombre": "Cota",
    "latitud": 4.8333333,
    "departamento": 13,
    "codigo": "25214",
    "longitud": -74.1333333
  },
  "model": "entidades.ciudad"
},
{
  "pk": 249,
  "fields": {
    "nombre": "Cotorra",
    "latitud": 9.05,
    "departamento": 14,
    "codigo": "23300",
    "longitud": -75.8
  },
  "model": "entidades.ciudad"
},
{
  "pk": 250,
  "fields": {
    "nombre": "Covarach\u00eda",
    "latitud": 6.5833333,
    "departamento": 6,
    "codigo": "15218",
    "longitud": -72.7
  },
  "model": "entidades.ciudad"
},
{
  "pk": 251,
  "fields": {
    "nombre": "Cove\u00f1as",
    "latitud": 9.4166667,
    "departamento": 28,
    "codigo": "70221",
    "longitud": -75.7
  },
  "model": "entidades.ciudad"
},
{
  "pk": 252,
  "fields": {
    "nombre": "Coyaima",
    "latitud": 3.8333333,
    "departamento": 29,
    "codigo": "73217",
    "longitud": -75.0833333
  },
  "model": "entidades.ciudad"
},
{
  "pk": 253,
  "fields": {
    "nombre": "Cravo Norte",
    "latitud": 6.3030556,
    "departamento": 3,
    "codigo": "81220",
    "longitud": -70.2016667
  },
  "model": "entidades.ciudad"
},
{
  "pk": 254,
  "fields": {
    "nombre": "Cuaspud (Carlosama)",
    "latitud": 0.8658333,
    "departamento": 21,
    "codigo": "52224",
    "longitud": -77.7294444
  },
  "model": "entidades.ciudad"
},
{
  "pk": 255,
  "fields": {
    "nombre": "Cubarral",
    "latitud": 3.7713889,
    "departamento": 20,
    "codigo": "50223",
    "longitud": -73.8377778
  },
  "model": "entidades.ciudad"
},
{
  "pk": 256,
  "fields": {
    "nombre": "Cubar\u00e1",
    "latitud": 7.0411111,
    "departamento": 6,
    "codigo": "15223",
    "longitud": -72.0608333
  },
  "model": "entidades.ciudad"
},
{
  "pk": 257,
  "fields": {
    "nombre": "Cucaita",
    "latitud": 5.5333333,
    "departamento": 6,
    "codigo": "15224",
    "longitud": -73.4666667
  },
  "model": "entidades.ciudad"
},
{
  "pk": 258,
  "fields": {
    "nombre": "Cucunub\u00e1",
    "latitud": 5.25,
    "departamento": 13,
    "codigo": "25224",
    "longitud": -73.75
  },
  "model": "entidades.ciudad"
},
{
  "pk": 259,
  "fields": {
    "nombre": "Cucutilla",
    "latitud": 7.5,
    "departamento": 22,
    "codigo": "54223",
    "longitud": -72.75
  },
  "model": "entidades.ciudad"
},
{
  "pk": 260,
  "fields": {
    "nombre": "Cuitiva",
    "latitud": 5.65,
    "departamento": 6,
    "codigo": "15226",
    "longitud": -72.9166667
  },
  "model": "entidades.ciudad"
},
{
  "pk": 261,
  "fields": {
    "nombre": "Cumaral",
    "latitud": 4.25,
    "departamento": 20,
    "codigo": "50226",
    "longitud": -73.3333333
  },
  "model": "entidades.ciudad"
},
{
  "pk": 262,
  "fields": {
    "nombre": "Cumaribo",
    "latitud": 4.4444444,
    "departamento": 32,
    "codigo": "99773",
    "longitud": -69.8002778
  },
  "model": "entidades.ciudad"
},
{
  "pk": 263,
  "fields": {
    "nombre": "Cumbal",
    "latitud": 0.9166667,
    "departamento": 21,
    "codigo": "52227",
    "longitud": -77.9166667
  },
  "model": "entidades.ciudad"
},
{
  "pk": 264,
  "fields": {
    "nombre": "Cumbitara",
    "latitud": 1.6533333,
    "departamento": 21,
    "codigo": "52233",
    "longitud": -77.5833333
  },
  "model": "entidades.ciudad"
},
{
  "pk": 265,
  "fields": {
    "nombre": "Cunday",
    "latitud": 4.0833333,
    "departamento": 29,
    "codigo": "73226",
    "longitud": -74.6666667
  },
  "model": "entidades.ciudad"
},
{
  "pk": 266,
  "fields": {
    "nombre": "Curillo",
    "latitud": 1.0352778,
    "departamento": 8,
    "codigo": "18205",
    "longitud": -75.9247222
  },
  "model": "entidades.ciudad"
},
{
  "pk": 267,
  "fields": {
    "nombre": "Curit\u00ed",
    "latitud": 6.6666667,
    "departamento": 27,
    "codigo": "68229",
    "longitud": -73.0
  },
  "model": "entidades.ciudad"
},
{
  "pk": 268,
  "fields": {
    "nombre": "Curuman\u00ed",
    "latitud": 9.2041667,
    "departamento": 11,
    "codigo": "20228",
    "longitud": -73.5486111
  },
  "model": "entidades.ciudad"
},
{
  "pk": 269,
  "fields": {
    "nombre": "C\u00e1ceres",
    "latitud": 7.6666667,
    "departamento": 2,
    "codigo": "05120",
    "longitud": -75.3333333
  },
  "model": "entidades.ciudad"
},
{
  "pk": 270,
  "fields": {
    "nombre": "C\u00e1chira",
    "latitud": 7.75,
    "departamento": 22,
    "codigo": "54128",
    "longitud": -73.1666667
  },
  "model": "entidades.ciudad"
},
{
  "pk": 271,
  "fields": {
    "nombre": "C\u00e1cota",
    "latitud": 7.25,
    "departamento": 22,
    "codigo": "54125",
    "longitud": -72.5833333
  },
  "model": "entidades.ciudad"
},
{
  "pk": 272,
  "fields": {
    "nombre": "C\u00e1queza",
    "latitud": 4.45,
    "departamento": 13,
    "codigo": "25151",
    "longitud": -73.95
  },
  "model": "entidades.ciudad"
},
{
  "pk": 273,
  "fields": {
    "nombre": "C\u00e9rtegui",
    "latitud": 5.4,
    "departamento": 12,
    "codigo": "27160",
    "longitud": -76.6
  },
  "model": "entidades.ciudad"
},
{
  "pk": 274,
  "fields": {
    "nombre": "C\u00f3mbita",
    "latitud": 5.75,
    "departamento": 6,
    "codigo": "15204",
    "longitud": -73.25
  },
  "model": "entidades.ciudad"
},
{
  "pk": 275,
  "fields": {
    "nombre": "C\u00f3rdoba",
    "latitud": 9.5,
    "departamento": 5,
    "codigo": "13212",
    "longitud": -74.9166667
  },
  "model": "entidades.ciudad"
},
{
  "pk": 276,
  "fields": {
    "nombre": "C\u00f3rdoba",
    "latitud": 0.7833333,
    "departamento": 21,
    "codigo": "52215",
    "longitud": -77.3333333
  },
  "model": "entidades.ciudad"
},
{
  "pk": 277,
  "fields": {
    "nombre": "C\u00facuta",
    "latitud": 7.8833333,
    "departamento": 22,
    "codigo": "54001",
    "longitud": -72.5052778
  },
  "model": "entidades.ciudad"
},
{
  "pk": 278,
  "fields": {
    "nombre": "Dabeiba",
    "latitud": 7.0,
    "departamento": 2,
    "codigo": "05234",
    "longitud": -76.25
  },
  "model": "entidades.ciudad"
},
{
  "pk": 279,
  "fields": {
    "nombre": "Dagua",
    "latitud": 3.6602778,
    "departamento": 30,
    "codigo": "76233",
    "longitud": -76.6927778
  },
  "model": "entidades.ciudad"
},
{
  "pk": 280,
  "fields": {
    "nombre": "Dibulla",
    "latitud": 11.2722222,
    "departamento": 18,
    "codigo": "44090",
    "longitud": -73.3055556
  },
  "model": "entidades.ciudad"
},
{
  "pk": 281,
  "fields": {
    "nombre": "Distracci\u00f3n",
    "latitud": 10.8977778,
    "departamento": 18,
    "codigo": "44098",
    "longitud": -72.8869444
  },
  "model": "entidades.ciudad"
},
{
  "pk": 282,
  "fields": {
    "nombre": "Dolores",
    "latitud": 3.6666667,
    "departamento": 29,
    "codigo": "73236",
    "longitud": -74.75
  },
  "model": "entidades.ciudad"
},
{
  "pk": 283,
  "fields": {
    "nombre": "Don Mat\u00edas",
    "latitud": 6.5,
    "departamento": 2,
    "codigo": "05237",
    "longitud": -75.3333333
  },
  "model": "entidades.ciudad"
},
{
  "pk": 284,
  "fields": {
    "nombre": "Dos Quebradas",
    "latitud": 4.8347222,
    "departamento": 25,
    "codigo": "66170",
    "longitud": -75.6725
  },
  "model": "entidades.ciudad"
},
{
  "pk": 285,
  "fields": {
    "nombre": "Duitama",
    "latitud": 5.8269444,
    "departamento": 6,
    "codigo": "15238",
    "longitud": -73.0202778
  },
  "model": "entidades.ciudad"
},
{
  "pk": 286,
  "fields": {
    "nombre": "Durania",
    "latitud": 7.75,
    "departamento": 22,
    "codigo": "54239",
    "longitud": -72.6333333
  },
  "model": "entidades.ciudad"
},
{
  "pk": 287,
  "fields": {
    "nombre": "Eb\u00e9jico",
    "latitud": 6.3333333,
    "departamento": 2,
    "codigo": "05240",
    "longitud": -75.75
  },
  "model": "entidades.ciudad"
},
{
  "pk": 288,
  "fields": {
    "nombre": "El Bagre",
    "latitud": 7.5941667,
    "departamento": 2,
    "codigo": "05250",
    "longitud": -74.8119444
  },
  "model": "entidades.ciudad"
},
{
  "pk": 289,
  "fields": {
    "nombre": "El Banco",
    "latitud": 9.0455556,
    "departamento": 19,
    "codigo": "47245",
    "longitud": -73.9747222
  },
  "model": "entidades.ciudad"
},
{
  "pk": 290,
  "fields": {
    "nombre": "El Cairo",
    "latitud": 4.75,
    "departamento": 30,
    "codigo": "76246",
    "longitud": -76.25
  },
  "model": "entidades.ciudad"
},
{
  "pk": 291,
  "fields": {
    "nombre": "El Calvario",
    "latitud": 4.4166667,
    "departamento": 20,
    "codigo": "50245",
    "longitud": -73.6666667
  },
  "model": "entidades.ciudad"
},
{
  "pk": 292,
  "fields": {
    "nombre": "El Carmen",
    "latitud": 8.75,
    "departamento": 22,
    "codigo": "54245",
    "longitud": -73.3333333
  },
  "model": "entidades.ciudad"
},
{
  "pk": 293,
  "fields": {
    "nombre": "El Carmen",
    "latitud": 6.698,
    "departamento": 27,
    "codigo": "68235",
    "longitud": -73.511
  },
  "model": "entidades.ciudad"
},
{
  "pk": 294,
  "fields": {
    "nombre": "El Carmen de Atrato",
    "latitud": null,
    "departamento": 12,
    "codigo": "27245",
    "longitud": null
  },
  "model": "entidades.ciudad"
},
{
  "pk": 295,
  "fields": {
    "nombre": "El Carmen de Bol\u00edvar",
    "latitud": 9.75,
    "departamento": 5,
    "codigo": "13244",
    "longitud": -75.1666667
  },
  "model": "entidades.ciudad"
},
{
  "pk": 296,
  "fields": {
    "nombre": "El Castillo",
    "latitud": 3.5680556,
    "departamento": 20,
    "codigo": "50251",
    "longitud": -73.7838889
  },
  "model": "entidades.ciudad"
},
{
  "pk": 297,
  "fields": {
    "nombre": "El Cerrito",
    "latitud": 3.6666667,
    "departamento": 30,
    "codigo": "76248",
    "longitud": -76.1666667
  },
  "model": "entidades.ciudad"
},
{
  "pk": 298,
  "fields": {
    "nombre": "El Charco",
    "latitud": 2.3333333,
    "departamento": 21,
    "codigo": "52250",
    "longitud": -78.35
  },
  "model": "entidades.ciudad"
},
{
  "pk": 299,
  "fields": {
    "nombre": "El Cocuy",
    "latitud": 6.4166667,
    "departamento": 6,
    "codigo": "15244",
    "longitud": -72.4166667
  },
  "model": "entidades.ciudad"
},
{
  "pk": 300,
  "fields": {
    "nombre": "El Colegio",
    "latitud": 4.5833333,
    "departamento": 13,
    "codigo": "25245",
    "longitud": -74.45
  },
  "model": "entidades.ciudad"
},
{
  "pk": 301,
  "fields": {
    "nombre": "El Copey",
    "latitud": 10.1505556,
    "departamento": 11,
    "codigo": "20238",
    "longitud": -73.965
  },
  "model": "entidades.ciudad"
},
{
  "pk": 302,
  "fields": {
    "nombre": "El Doncello",
    "latitud": 1.6794444,
    "departamento": 8,
    "codigo": "18247",
    "longitud": -75.2791667
  },
  "model": "entidades.ciudad"
},
{
  "pk": 303,
  "fields": {
    "nombre": "El Dorado",
    "latitud": 2.7791667,
    "departamento": 20,
    "codigo": "50270",
    "longitud": -72.8719444
  },
  "model": "entidades.ciudad"
},
{
  "pk": 304,
  "fields": {
    "nombre": "El Dovio",
    "latitud": 4.5,
    "departamento": 30,
    "codigo": "76250",
    "longitud": -76.25
  },
  "model": "entidades.ciudad"
},
{
  "pk": 305,
  "fields": {
    "nombre": "El Espino",
    "latitud": 6.5833333,
    "departamento": 6,
    "codigo": "15248",
    "longitud": -72.4166667
  },
  "model": "entidades.ciudad"
},
{
  "pk": 306,
  "fields": {
    "nombre": "El Guacamayo",
    "latitud": 6.3333333,
    "departamento": 27,
    "codigo": "68245",
    "longitud": -73.4666667
  },
  "model": "entidades.ciudad"
},
{
  "pk": 307,
  "fields": {
    "nombre": "El Guamo",
    "latitud": 10.0833333,
    "departamento": 5,
    "codigo": "13248",
    "longitud": -74.9166667
  },
  "model": "entidades.ciudad"
},
{
  "pk": 308,
  "fields": {
    "nombre": "El Molino",
    "latitud": 10.6533333,
    "departamento": 18,
    "codigo": "44110",
    "longitud": -72.9241667
  },
  "model": "entidades.ciudad"
},
{
  "pk": 309,
  "fields": {
    "nombre": "El Paso",
    "latitud": 9.6622222,
    "departamento": 11,
    "codigo": "20250",
    "longitud": -73.7519444
  },
  "model": "entidades.ciudad"
},
{
  "pk": 310,
  "fields": {
    "nombre": "El Paujil",
    "latitud": 1.564,
    "departamento": 8,
    "codigo": "18256",
    "longitud": -75.332
  },
  "model": "entidades.ciudad"
},
{
  "pk": 311,
  "fields": {
    "nombre": "El Pe\u00f1ol",
    "latitud": 1.4333333,
    "departamento": 21,
    "codigo": "52254",
    "longitud": -77.4333333
  },
  "model": "entidades.ciudad"
},
{
  "pk": 312,
  "fields": {
    "nombre": "El Pe\u00f1on",
    "latitud": 8.9833333,
    "departamento": 5,
    "codigo": "13268",
    "longitud": -73.95
  },
  "model": "entidades.ciudad"
},
{
  "pk": 313,
  "fields": {
    "nombre": "El Pe\u00f1on",
    "latitud": 6.55,
    "departamento": 27,
    "codigo": "68250",
    "longitud": -72.8333333
  },
  "model": "entidades.ciudad"
},
{
  "pk": 314,
  "fields": {
    "nombre": "El Pe\u00f1\u00f3n",
    "latitud": 5.3333333,
    "departamento": 13,
    "codigo": "25258",
    "longitud": -74.3333333
  },
  "model": "entidades.ciudad"
},
{
  "pk": 315,
  "fields": {
    "nombre": "El Pi\u00f1on",
    "latitud": 10.3333333,
    "departamento": 19,
    "codigo": "47258",
    "longitud": -74.6666667
  },
  "model": "entidades.ciudad"
},
{
  "pk": 316,
  "fields": {
    "nombre": "El Play\u00f3n",
    "latitud": 7.4766667,
    "departamento": 27,
    "codigo": "68255",
    "longitud": -73.2080556
  },
  "model": "entidades.ciudad"
},
{
  "pk": 317,
  "fields": {
    "nombre": "El Retorno",
    "latitud": 2.3305556,
    "departamento": 16,
    "codigo": "95025",
    "longitud": -72.6277778
  },
  "model": "entidades.ciudad"
},
{
  "pk": 318,
  "fields": {
    "nombre": "El Ret\u00e9n",
    "latitud": 10.6166667,
    "departamento": 19,
    "codigo": "47268",
    "longitud": -74.2666667
  },
  "model": "entidades.ciudad"
},
{
  "pk": 319,
  "fields": {
    "nombre": "El Roble",
    "latitud": 9.1,
    "departamento": 28,
    "codigo": "70233",
    "longitud": -75.2
  },
  "model": "entidades.ciudad"
},
{
  "pk": 320,
  "fields": {
    "nombre": "El Rosal",
    "latitud": 4.85,
    "departamento": 13,
    "codigo": "25260",
    "longitud": -74.2666667
  },
  "model": "entidades.ciudad"
},
{
  "pk": 321,
  "fields": {
    "nombre": "El Rosario",
    "latitud": 1.8333333,
    "departamento": 21,
    "codigo": "52256",
    "longitud": -77.3333333
  },
  "model": "entidades.ciudad"
},
{
  "pk": 322,
  "fields": {
    "nombre": "El Tabl\u00f3n de G\u00f3mez",
    "latitud": null,
    "departamento": 21,
    "codigo": "52258",
    "longitud": null
  },
  "model": "entidades.ciudad"
},
{
  "pk": 323,
  "fields": {
    "nombre": "El Tambo",
    "latitud": 2.5,
    "departamento": 10,
    "codigo": "19256",
    "longitud": -77.0
  },
  "model": "entidades.ciudad"
},
{
  "pk": 324,
  "fields": {
    "nombre": "El Tambo",
    "latitud": 1.4,
    "departamento": 21,
    "codigo": "52260",
    "longitud": -77.3333333
  },
  "model": "entidades.ciudad"
},
{
  "pk": 325,
  "fields": {
    "nombre": "El Tarra",
    "latitud": 8.5847222,
    "departamento": 22,
    "codigo": "54250",
    "longitud": -73.0883333
  },
  "model": "entidades.ciudad"
},
{
  "pk": 326,
  "fields": {
    "nombre": "El Zulia",
    "latitud": 7.9355556,
    "departamento": 22,
    "codigo": "54261",
    "longitud": -72.605
  },
  "model": "entidades.ciudad"
},
{
  "pk": 327,
  "fields": {
    "nombre": "El \u00c1guila",
    "latitud": 4.9166667,
    "departamento": 30,
    "codigo": "76243",
    "longitud": -76.0833333
  },
  "model": "entidades.ciudad"
},
{
  "pk": 328,
  "fields": {
    "nombre": "El\u00edas",
    "latitud": 2.0833333,
    "departamento": 17,
    "codigo": "41244",
    "longitud": -76.0
  },
  "model": "entidades.ciudad"
},
{
  "pk": 329,
  "fields": {
    "nombre": "Encino",
    "latitud": 6.1666667,
    "departamento": 27,
    "codigo": "68264",
    "longitud": -73.0
  },
  "model": "entidades.ciudad"
},
{
  "pk": 330,
  "fields": {
    "nombre": "Enciso",
    "latitud": 6.75,
    "departamento": 27,
    "codigo": "68266",
    "longitud": -72.6333333
  },
  "model": "entidades.ciudad"
},
{
  "pk": 331,
  "fields": {
    "nombre": "Entrerr\u00edos",
    "latitud": 6.5833333,
    "departamento": 2,
    "codigo": "05264",
    "longitud": -75.5833333
  },
  "model": "entidades.ciudad"
},
{
  "pk": 332,
  "fields": {
    "nombre": "Envigado",
    "latitud": 6.1730556,
    "departamento": 2,
    "codigo": "05266",
    "longitud": -75.5638889
  },
  "model": "entidades.ciudad"
},
{
  "pk": 333,
  "fields": {
    "nombre": "Espinal",
    "latitud": 4.2,
    "departamento": 29,
    "codigo": "73268",
    "longitud": -74.8333333
  },
  "model": "entidades.ciudad"
},
{
  "pk": 334,
  "fields": {
    "nombre": "Facatativ\u00e1",
    "latitud": 4.8166667,
    "departamento": 13,
    "codigo": "25269",
    "longitud": -74.3666667
  },
  "model": "entidades.ciudad"
},
{
  "pk": 335,
  "fields": {
    "nombre": "Falan",
    "latitud": 5.1333333,
    "departamento": 29,
    "codigo": "73270",
    "longitud": -75.0
  },
  "model": "entidades.ciudad"
},
{
  "pk": 336,
  "fields": {
    "nombre": "Filadelfia",
    "latitud": 5.3,
    "departamento": 7,
    "codigo": "17272",
    "longitud": -75.6
  },
  "model": "entidades.ciudad"
},
{
  "pk": 337,
  "fields": {
    "nombre": "Filandia",
    "latitud": 4.6666667,
    "departamento": 24,
    "codigo": "63272",
    "longitud": -75.6333333
  },
  "model": "entidades.ciudad"
},
{
  "pk": 338,
  "fields": {
    "nombre": "Firavitoba",
    "latitud": 5.75,
    "departamento": 6,
    "codigo": "15272",
    "longitud": -72.9666667
  },
  "model": "entidades.ciudad"
},
{
  "pk": 339,
  "fields": {
    "nombre": "Flandes",
    "latitud": 4.25,
    "departamento": 29,
    "codigo": "73275",
    "longitud": -74.8333333
  },
  "model": "entidades.ciudad"
},
{
  "pk": 340,
  "fields": {
    "nombre": "Florencia",
    "latitud": 1.6175,
    "departamento": 8,
    "codigo": "18001",
    "longitud": -75.6175
  },
  "model": "entidades.ciudad"
},
{
  "pk": 341,
  "fields": {
    "nombre": "Florencia",
    "latitud": 1.6944444,
    "departamento": 10,
    "codigo": "19290",
    "longitud": -77.0758333
  },
  "model": "entidades.ciudad"
},
{
  "pk": 342,
  "fields": {
    "nombre": "Floresta",
    "latitud": 5.9166667,
    "departamento": 6,
    "codigo": "15276",
    "longitud": -72.9166667
  },
  "model": "entidades.ciudad"
},
{
  "pk": 343,
  "fields": {
    "nombre": "Florida",
    "latitud": 3.3275,
    "departamento": 30,
    "codigo": "76275",
    "longitud": -76.2386111
  },
  "model": "entidades.ciudad"
},
{
  "pk": 344,
  "fields": {
    "nombre": "Floridablanca",
    "latitud": 7.0647222,
    "departamento": 27,
    "codigo": "68276",
    "longitud": -73.0897222
  },
  "model": "entidades.ciudad"
},
{
  "pk": 345,
  "fields": {
    "nombre": "Flori\u00e1n",
    "latitud": 5.8047222,
    "departamento": 27,
    "codigo": "68271",
    "longitud": -73.9741667
  },
  "model": "entidades.ciudad"
},
{
  "pk": 346,
  "fields": {
    "nombre": "Fonseca",
    "latitud": 10.8333333,
    "departamento": 18,
    "codigo": "44279",
    "longitud": -72.8333333
  },
  "model": "entidades.ciudad"
},
{
  "pk": 347,
  "fields": {
    "nombre": "Fort\u00fal",
    "latitud": 6.7461111,
    "departamento": 3,
    "codigo": "81300",
    "longitud": -71.8566667
  },
  "model": "entidades.ciudad"
},
{
  "pk": 348,
  "fields": {
    "nombre": "Fosca",
    "latitud": 4.3333333,
    "departamento": 13,
    "codigo": "25281",
    "longitud": -73.9166667
  },
  "model": "entidades.ciudad"
},
{
  "pk": 349,
  "fields": {
    "nombre": "Francisco Pizarro",
    "latitud": 2.1019444,
    "departamento": 21,
    "codigo": "52520",
    "longitud": -78.7216667
  },
  "model": "entidades.ciudad"
},
{
  "pk": 350,
  "fields": {
    "nombre": "Fredonia",
    "latitud": 5.9166667,
    "departamento": 2,
    "codigo": "05282",
    "longitud": -75.6666667
  },
  "model": "entidades.ciudad"
},
{
  "pk": 351,
  "fields": {
    "nombre": "Fresno",
    "latitud": 5.1666667,
    "departamento": 29,
    "codigo": "73283",
    "longitud": -75.0833333
  },
  "model": "entidades.ciudad"
},
{
  "pk": 352,
  "fields": {
    "nombre": "Frontino",
    "latitud": 6.6666667,
    "departamento": 2,
    "codigo": "05284",
    "longitud": -76.3333333
  },
  "model": "entidades.ciudad"
},
{
  "pk": 353,
  "fields": {
    "nombre": "Fuente de Oro",
    "latitud": 3.4594444,
    "departamento": 20,
    "codigo": "50287",
    "longitud": -73.6127778
  },
  "model": "entidades.ciudad"
},
{
  "pk": 354,
  "fields": {
    "nombre": "Fundaci\u00f3n",
    "latitud": 10.4166667,
    "departamento": 19,
    "codigo": "47288",
    "longitud": -73.9166667
  },
  "model": "entidades.ciudad"
},
{
  "pk": 355,
  "fields": {
    "nombre": "Funes",
    "latitud": 0.95,
    "departamento": 21,
    "codigo": "52287",
    "longitud": -77.3333333
  },
  "model": "entidades.ciudad"
},
{
  "pk": 356,
  "fields": {
    "nombre": "Funza",
    "latitud": 4.7833333,
    "departamento": 13,
    "codigo": "25286",
    "longitud": -74.2
  },
  "model": "entidades.ciudad"
},
{
  "pk": 357,
  "fields": {
    "nombre": "Fusagasug\u00e1",
    "latitud": 4.4166667,
    "departamento": 13,
    "codigo": "25290",
    "longitud": -74.4
  },
  "model": "entidades.ciudad"
},
{
  "pk": 358,
  "fields": {
    "nombre": "F\u00f3meque",
    "latitud": 4.5833333,
    "departamento": 13,
    "codigo": "25279",
    "longitud": -73.8333333
  },
  "model": "entidades.ciudad"
},
{
  "pk": 359,
  "fields": {
    "nombre": "F\u00faquene",
    "latitud": 5.4166667,
    "departamento": 13,
    "codigo": "25288",
    "longitud": -73.8
  },
  "model": "entidades.ciudad"
},
{
  "pk": 360,
  "fields": {
    "nombre": "Gachal\u00e1",
    "latitud": 4.6666667,
    "departamento": 13,
    "codigo": "25293",
    "longitud": -73.5
  },
  "model": "entidades.ciudad"
},
{
  "pk": 361,
  "fields": {
    "nombre": "Gachancip\u00e1",
    "latitud": 5.0833333,
    "departamento": 13,
    "codigo": "25295",
    "longitud": -73.8833333
  },
  "model": "entidades.ciudad"
},
{
  "pk": 362,
  "fields": {
    "nombre": "Gachantiv\u00e1",
    "latitud": 5.75,
    "departamento": 6,
    "codigo": "15293",
    "longitud": -73.5
  },
  "model": "entidades.ciudad"
},
{
  "pk": 363,
  "fields": {
    "nombre": "Gachet\u00e1",
    "latitud": 4.9166667,
    "departamento": 13,
    "codigo": "25297",
    "longitud": -73.6666667
  },
  "model": "entidades.ciudad"
},
{
  "pk": 364,
  "fields": {
    "nombre": "Galapa",
    "latitud": 10.9166667,
    "departamento": 4,
    "codigo": "08296",
    "longitud": -74.8333333
  },
  "model": "entidades.ciudad"
},
{
  "pk": 365,
  "fields": {
    "nombre": "Galeras (Nueva Granada)",
    "latitud": 9.1630556,
    "departamento": 28,
    "codigo": "70235",
    "longitud": -75.0525
  },
  "model": "entidades.ciudad"
},
{
  "pk": 366,
  "fields": {
    "nombre": "Gal\u00e1n",
    "latitud": 6.7,
    "departamento": 27,
    "codigo": "68296",
    "longitud": -73.3
  },
  "model": "entidades.ciudad"
},
{
  "pk": 367,
  "fields": {
    "nombre": "Gama",
    "latitud": 4.75,
    "departamento": 13,
    "codigo": "25299",
    "longitud": -73.6
  },
  "model": "entidades.ciudad"
},
{
  "pk": 368,
  "fields": {
    "nombre": "Gamarra",
    "latitud": 8.3333333,
    "departamento": 11,
    "codigo": "20295",
    "longitud": -73.6666667
  },
  "model": "entidades.ciudad"
},
{
  "pk": 369,
  "fields": {
    "nombre": "Garagoa",
    "latitud": 5.1333333,
    "departamento": 6,
    "codigo": "15299",
    "longitud": -73.3
  },
  "model": "entidades.ciudad"
},
{
  "pk": 370,
  "fields": {
    "nombre": "Garz\u00f3n",
    "latitud": 2.25,
    "departamento": 17,
    "codigo": "41298",
    "longitud": -75.5833333
  },
  "model": "entidades.ciudad"
},
{
  "pk": 371,
  "fields": {
    "nombre": "Gigante",
    "latitud": 2.5,
    "departamento": 17,
    "codigo": "41306",
    "longitud": -75.5
  },
  "model": "entidades.ciudad"
},
{
  "pk": 372,
  "fields": {
    "nombre": "Ginebra",
    "latitud": 3.75,
    "departamento": 30,
    "codigo": "76306",
    "longitud": -76.1666667
  },
  "model": "entidades.ciudad"
},
{
  "pk": 373,
  "fields": {
    "nombre": "Giraldo",
    "latitud": 6.6666667,
    "departamento": 2,
    "codigo": "05306",
    "longitud": -75.9166667
  },
  "model": "entidades.ciudad"
},
{
  "pk": 374,
  "fields": {
    "nombre": "Girardot",
    "latitud": 4.3030556,
    "departamento": 13,
    "codigo": "25307",
    "longitud": -74.8008333
  },
  "model": "entidades.ciudad"
},
{
  "pk": 375,
  "fields": {
    "nombre": "Girardota",
    "latitud": 6.4166667,
    "departamento": 2,
    "codigo": "05308",
    "longitud": -75.45
  },
  "model": "entidades.ciudad"
},
{
  "pk": 376,
  "fields": {
    "nombre": "Gir\u00f3n",
    "latitud": 7.0708333,
    "departamento": 27,
    "codigo": "68306",
    "longitud": -73.1730556
  },
  "model": "entidades.ciudad"
},
{
  "pk": 377,
  "fields": {
    "nombre": "Gonzalez",
    "latitud": 8.4,
    "departamento": 11,
    "codigo": "20310",
    "longitud": -73.3333333
  },
  "model": "entidades.ciudad"
},
{
  "pk": 378,
  "fields": {
    "nombre": "Gramalote",
    "latitud": 7.9166667,
    "departamento": 22,
    "codigo": "54313",
    "longitud": -72.75
  },
  "model": "entidades.ciudad"
},
{
  "pk": 379,
  "fields": {
    "nombre": "Granada",
    "latitud": 6.1666667,
    "departamento": 2,
    "codigo": "05313",
    "longitud": -75.1333333
  },
  "model": "entidades.ciudad"
},
{
  "pk": 380,
  "fields": {
    "nombre": "Granada",
    "latitud": 5.0666667,
    "departamento": 13,
    "codigo": "25312",
    "longitud": -74.5666667
  },
  "model": "entidades.ciudad"
},
{
  "pk": 381,
  "fields": {
    "nombre": "Granada",
    "latitud": 3.5386111,
    "departamento": 20,
    "codigo": "50313",
    "longitud": -73.7005556
  },
  "model": "entidades.ciudad"
},
{
  "pk": 382,
  "fields": {
    "nombre": "Guaca",
    "latitud": 7.0,
    "departamento": 27,
    "codigo": "68318",
    "longitud": -72.7666667
  },
  "model": "entidades.ciudad"
},
{
  "pk": 383,
  "fields": {
    "nombre": "Guacamayas",
    "latitud": 6.5,
    "departamento": 6,
    "codigo": "15317",
    "longitud": -72.5
  },
  "model": "entidades.ciudad"
},
{
  "pk": 384,
  "fields": {
    "nombre": "San Juan Bautista de Guacar\u00ed",
    "latitud": 3.7694444,
    "departamento": 30,
    "codigo": "76318",
    "longitud": -76.3380556
  },
  "model": "entidades.ciudad"
},
{
  "pk": 385,
  "fields": {
    "nombre": "Guachav\u00e9s",
    "latitud": 1.2247222,
    "departamento": 21,
    "codigo": "52699",
    "longitud": -77.68
  },
  "model": "entidades.ciudad"
},
{
  "pk": 386,
  "fields": {
    "nombre": "Guachen\u00e9",
    "latitud": 3.1333333,
    "departamento": 10,
    "codigo": "19300",
    "longitud": -76.3833333
  },
  "model": "entidades.ciudad"
},
{
  "pk": 387,
  "fields": {
    "nombre": "Guachet\u00e1",
    "latitud": 5.4166667,
    "departamento": 13,
    "codigo": "25317",
    "longitud": -73.7
  },
  "model": "entidades.ciudad"
},
{
  "pk": 388,
  "fields": {
    "nombre": "Guachucal",
    "latitud": 1.0,
    "departamento": 21,
    "codigo": "52317",
    "longitud": -77.75
  },
  "model": "entidades.ciudad"
},
{
  "pk": 389,
  "fields": {
    "nombre": "Guadalupe",
    "latitud": 6.8175,
    "departamento": 2,
    "codigo": "05315",
    "longitud": -75.2441667
  },
  "model": "entidades.ciudad"
},
{
  "pk": 390,
  "fields": {
    "nombre": "Guadalupe",
    "latitud": 2.0833333,
    "departamento": 17,
    "codigo": "41319",
    "longitud": -75.6666667
  },
  "model": "entidades.ciudad"
},
{
  "pk": 391,
  "fields": {
    "nombre": "Guadalupe",
    "latitud": 6.3,
    "departamento": 27,
    "codigo": "68320",
    "longitud": -73.3333333
  },
  "model": "entidades.ciudad"
},
{
  "pk": 392,
  "fields": {
    "nombre": "Guaduas",
    "latitud": 5.25,
    "departamento": 13,
    "codigo": "25320",
    "longitud": -74.6666667
  },
  "model": "entidades.ciudad"
},
{
  "pk": 393,
  "fields": {
    "nombre": "Guaitarilla",
    "latitud": 1.15,
    "departamento": 21,
    "codigo": "52320",
    "longitud": -77.5
  },
  "model": "entidades.ciudad"
},
{
  "pk": 394,
  "fields": {
    "nombre": "Gualmat\u00e1n",
    "latitud": 0.8333333,
    "departamento": 21,
    "codigo": "52323",
    "longitud": -77.5833333
  },
  "model": "entidades.ciudad"
},
{
  "pk": 395,
  "fields": {
    "nombre": "Guamal",
    "latitud": 9.25,
    "departamento": 19,
    "codigo": "47318",
    "longitud": -74.1666667
  },
  "model": "entidades.ciudad"
},
{
  "pk": 396,
  "fields": {
    "nombre": "Guamal",
    "latitud": 3.9166667,
    "departamento": 20,
    "codigo": "50318",
    "longitud": -74.0
  },
  "model": "entidades.ciudad"
},
{
  "pk": 397,
  "fields": {
    "nombre": "Guamo",
    "latitud": 4.0833333,
    "departamento": 29,
    "codigo": "73319",
    "longitud": -74.9166667
  },
  "model": "entidades.ciudad"
},
{
  "pk": 398,
  "fields": {
    "nombre": "Guapota",
    "latitud": 6.3833333,
    "departamento": 27,
    "codigo": "68322",
    "longitud": -73.25
  },
  "model": "entidades.ciudad"
},
{
  "pk": 399,
  "fields": {
    "nombre": "Guap\u00ed",
    "latitud": 2.4166667,
    "departamento": 10,
    "codigo": "19318",
    "longitud": -77.6
  },
  "model": "entidades.ciudad"
},
{
  "pk": 400,
  "fields": {
    "nombre": "Guaranda",
    "latitud": 8.4697222,
    "departamento": 28,
    "codigo": "70265",
    "longitud": -75.5383333
  },
  "model": "entidades.ciudad"
},
{
  "pk": 401,
  "fields": {
    "nombre": "Guarne",
    "latitud": 6.25,
    "departamento": 2,
    "codigo": "05318",
    "longitud": -75.4166667
  },
  "model": "entidades.ciudad"
},
{
  "pk": 402,
  "fields": {
    "nombre": "Guasca",
    "latitud": 4.8333333,
    "departamento": 13,
    "codigo": "25322",
    "longitud": -73.8333333
  },
  "model": "entidades.ciudad"
},
{
  "pk": 403,
  "fields": {
    "nombre": "Guatap\u00e9",
    "latitud": 6.25,
    "departamento": 2,
    "codigo": "05321",
    "longitud": -75.1666667
  },
  "model": "entidades.ciudad"
},
{
  "pk": 404,
  "fields": {
    "nombre": "Guataqu\u00ed",
    "latitud": 4.5833333,
    "departamento": 13,
    "codigo": "25324",
    "longitud": -74.8
  },
  "model": "entidades.ciudad"
},
{
  "pk": 405,
  "fields": {
    "nombre": "Guatavita",
    "latitud": 4.9666667,
    "departamento": 13,
    "codigo": "25326",
    "longitud": -73.75
  },
  "model": "entidades.ciudad"
},
{
  "pk": 406,
  "fields": {
    "nombre": "Guateque",
    "latitud": 5.0833333,
    "departamento": 6,
    "codigo": "15322",
    "longitud": -73.5
  },
  "model": "entidades.ciudad"
},
{
  "pk": 407,
  "fields": {
    "nombre": "Guavat\u00e1",
    "latitud": 6.0,
    "departamento": 27,
    "codigo": "68324",
    "longitud": -73.65
  },
  "model": "entidades.ciudad"
},
{
  "pk": 408,
  "fields": {
    "nombre": "Guayabal de Siquima",
    "latitud": 4.8813889,
    "departamento": 13,
    "codigo": "25328",
    "longitud": -74.4702778
  },
  "model": "entidades.ciudad"
},
{
  "pk": 409,
  "fields": {
    "nombre": "Guayabetal",
    "latitud": 4.2163889,
    "departamento": 13,
    "codigo": "25335",
    "longitud": -73.8133333
  },
  "model": "entidades.ciudad"
},
{
  "pk": 410,
  "fields": {
    "nombre": "Guayat\u00e1",
    "latitud": 5.0,
    "departamento": 6,
    "codigo": "15325",
    "longitud": -73.5
  },
  "model": "entidades.ciudad"
},
{
  "pk": 411,
  "fields": {
    "nombre": "Guepsa",
    "latitud": 6.0833333,
    "departamento": 27,
    "codigo": "68327",
    "longitud": -73.5
  },
  "model": "entidades.ciudad"
},
{
  "pk": 412,
  "fields": {
    "nombre": "Guic\u00e1n",
    "latitud": 6.75,
    "departamento": 6,
    "codigo": "15332",
    "longitud": -72.1666667
  },
  "model": "entidades.ciudad"
},
{
  "pk": 413,
  "fields": {
    "nombre": "Guti\u00e9rrez",
    "latitud": 4.25,
    "departamento": 13,
    "codigo": "25339",
    "longitud": -74.0
  },
  "model": "entidades.ciudad"
},
{
  "pk": 414,
  "fields": {
    "nombre": "Gu\u00e1tica",
    "latitud": 5.3333333,
    "departamento": 25,
    "codigo": "66318",
    "longitud": -75.8333333
  },
  "model": "entidades.ciudad"
},
{
  "pk": 415,
  "fields": {
    "nombre": "G\u00e1mbita",
    "latitud": 6.0,
    "departamento": 27,
    "codigo": "68298",
    "longitud": -73.25
  },
  "model": "entidades.ciudad"
},
{
  "pk": 416,
  "fields": {
    "nombre": "G\u00e1meza",
    "latitud": 5.85,
    "departamento": 6,
    "codigo": "15296",
    "longitud": -72.75
  },
  "model": "entidades.ciudad"
},
{
  "pk": 417,
  "fields": {
    "nombre": "G\u00e9nova",
    "latitud": 4.25,
    "departamento": 24,
    "codigo": "63302",
    "longitud": -75.6666667
  },
  "model": "entidades.ciudad"
},
{
  "pk": 418,
  "fields": {
    "nombre": "G\u00f3mez Plata",
    "latitud": 6.75,
    "departamento": 2,
    "codigo": "05310",
    "longitud": -75.8333333
  },
  "model": "entidades.ciudad"
},
{
  "pk": 419,
  "fields": {
    "nombre": "Hacar\u00ed",
    "latitud": 8.5,
    "departamento": 22,
    "codigo": "54344",
    "longitud": -73.0833333
  },
  "model": "entidades.ciudad"
},
{
  "pk": 420,
  "fields": {
    "nombre": "Hatillo de Loba",
    "latitud": 8.9586111,
    "departamento": 5,
    "codigo": "13300",
    "longitud": -74.0808333
  },
  "model": "entidades.ciudad"
},
{
  "pk": 421,
  "fields": {
    "nombre": "Hato",
    "latitud": 6.5833333,
    "departamento": 27,
    "codigo": "68344",
    "longitud": -73.3333333
  },
  "model": "entidades.ciudad"
},
{
  "pk": 422,
  "fields": {
    "nombre": "Hato Corozal",
    "latitud": 6.1555556,
    "departamento": 9,
    "codigo": "85125",
    "longitud": -71.7655556
  },
  "model": "entidades.ciudad"
},
{
  "pk": 423,
  "fields": {
    "nombre": "Hatonuevo",
    "latitud": 11.0694444,
    "departamento": 18,
    "codigo": "44378",
    "longitud": -72.7669444
  },
  "model": "entidades.ciudad"
},
{
  "pk": 424,
  "fields": {
    "nombre": "Heliconia",
    "latitud": 6.2333333,
    "departamento": 2,
    "codigo": "05347",
    "longitud": -75.75
  },
  "model": "entidades.ciudad"
},
{
  "pk": 425,
  "fields": {
    "nombre": "Herr\u00e1n",
    "latitud": 7.5,
    "departamento": 22,
    "codigo": "54347",
    "longitud": -72.4666667
  },
  "model": "entidades.ciudad"
},
{
  "pk": 426,
  "fields": {
    "nombre": "Herveo",
    "latitud": 5.0833333,
    "departamento": 29,
    "codigo": "73347",
    "longitud": -75.1666667
  },
  "model": "entidades.ciudad"
},
{
  "pk": 427,
  "fields": {
    "nombre": "Hispania",
    "latitud": 5.8025,
    "departamento": 2,
    "codigo": "05353",
    "longitud": -75.9116667
  },
  "model": "entidades.ciudad"
},
{
  "pk": 428,
  "fields": {
    "nombre": "Hobo",
    "latitud": 2.5833333,
    "departamento": 17,
    "codigo": "41349",
    "longitud": -75.5
  },
  "model": "entidades.ciudad"
},
{
  "pk": 429,
  "fields": {
    "nombre": "Honda",
    "latitud": 5.25,
    "departamento": 29,
    "codigo": "73349",
    "longitud": -74.8333333
  },
  "model": "entidades.ciudad"
},
{
  "pk": 430,
  "fields": {
    "nombre": "Ibagu\u00e9",
    "latitud": 4.4388889,
    "departamento": 29,
    "codigo": "73001",
    "longitud": -75.2322222
  },
  "model": "entidades.ciudad"
},
{
  "pk": 431,
  "fields": {
    "nombre": "Icononzo",
    "latitud": 4.1666667,
    "departamento": 29,
    "codigo": "73352",
    "longitud": -74.55
  },
  "model": "entidades.ciudad"
},
{
  "pk": 432,
  "fields": {
    "nombre": "Iles",
    "latitud": 0.95,
    "departamento": 21,
    "codigo": "52352",
    "longitud": -77.5333333
  },
  "model": "entidades.ciudad"
},
{
  "pk": 433,
  "fields": {
    "nombre": "Im\u00faes",
    "latitud": 1.05,
    "departamento": 21,
    "codigo": "52354",
    "longitud": -77.5
  },
  "model": "entidades.ciudad"
},
{
  "pk": 434,
  "fields": {
    "nombre": "Inz\u00e1",
    "latitud": 2.6666667,
    "departamento": 10,
    "codigo": "19355",
    "longitud": -76.0833333
  },
  "model": "entidades.ciudad"
},
{
  "pk": 435,
  "fields": {
    "nombre": "In\u00edrida",
    "latitud": 3.8652778,
    "departamento": 15,
    "codigo": "94001",
    "longitud": -67.9238889
  },
  "model": "entidades.ciudad"
},
{
  "pk": 436,
  "fields": {
    "nombre": "Ipiales",
    "latitud": 0.8302778,
    "departamento": 21,
    "codigo": "52356",
    "longitud": -77.6444444
  },
  "model": "entidades.ciudad"
},
{
  "pk": 437,
  "fields": {
    "nombre": "Isnos",
    "latitud": 2.0833333,
    "departamento": 17,
    "codigo": "41359",
    "longitud": -76.25
  },
  "model": "entidades.ciudad"
},
{
  "pk": 438,
  "fields": {
    "nombre": "Istmina",
    "latitud": 5.1588889,
    "departamento": 12,
    "codigo": "27361",
    "longitud": -76.6916667
  },
  "model": "entidades.ciudad"
},
{
  "pk": 439,
  "fields": {
    "nombre": "Itag\u00fc\u00ed",
    "latitud": 6.1719444,
    "departamento": 2,
    "codigo": "05360",
    "longitud": -75.6113889
  },
  "model": "entidades.ciudad"
},
{
  "pk": 440,
  "fields": {
    "nombre": "Ituango",
    "latitud": 7.25,
    "departamento": 2,
    "codigo": "05361",
    "longitud": -76.0
  },
  "model": "entidades.ciudad"
},
{
  "pk": 441,
  "fields": {
    "nombre": "Iz\u00e1",
    "latitud": 5.6666667,
    "departamento": 6,
    "codigo": "15362",
    "longitud": -72.9166667
  },
  "model": "entidades.ciudad"
},
{
  "pk": 442,
  "fields": {
    "nombre": "Jambal\u00f3",
    "latitud": 2.85,
    "departamento": 10,
    "codigo": "19364",
    "longitud": -76.3166667
  },
  "model": "entidades.ciudad"
},
{
  "pk": 443,
  "fields": {
    "nombre": "Jamund\u00ed",
    "latitud": 3.1666667,
    "departamento": 30,
    "codigo": "76364",
    "longitud": -76.5833333
  },
  "model": "entidades.ciudad"
},
{
  "pk": 444,
  "fields": {
    "nombre": "Jard\u00edn",
    "latitud": 5.5833333,
    "departamento": 2,
    "codigo": "05364",
    "longitud": -75.8333333
  },
  "model": "entidades.ciudad"
},
{
  "pk": 445,
  "fields": {
    "nombre": "Jenesano",
    "latitud": 5.3888889,
    "departamento": 6,
    "codigo": "15367",
    "longitud": -73.3680556
  },
  "model": "entidades.ciudad"
},
{
  "pk": 446,
  "fields": {
    "nombre": "Jeric\u00f3",
    "latitud": 5.75,
    "departamento": 2,
    "codigo": "05368",
    "longitud": -75.75
  },
  "model": "entidades.ciudad"
},
{
  "pk": 447,
  "fields": {
    "nombre": "Jeric\u00f3",
    "latitud": 6.2,
    "departamento": 6,
    "codigo": "15368",
    "longitud": -72.5833333
  },
  "model": "entidades.ciudad"
},
{
  "pk": 448,
  "fields": {
    "nombre": "Jerusal\u00e9n",
    "latitud": 4.6666667,
    "departamento": 13,
    "codigo": "25368",
    "longitud": -74.6666667
  },
  "model": "entidades.ciudad"
},
{
  "pk": 449,
  "fields": {
    "nombre": "Jes\u00fas Mar\u00eda",
    "latitud": 5.9166667,
    "departamento": 27,
    "codigo": "68368",
    "longitud": -73.8333333
  },
  "model": "entidades.ciudad"
},
{
  "pk": 450,
  "fields": {
    "nombre": "Jord\u00e1n",
    "latitud": 6.75,
    "departamento": 27,
    "codigo": "68370",
    "longitud": -73.0666667
  },
  "model": "entidades.ciudad"
},
{
  "pk": 451,
  "fields": {
    "nombre": "Juan de Acosta",
    "latitud": 10.8333333,
    "departamento": 4,
    "codigo": "08132",
    "longitud": -75.0333333
  },
  "model": "entidades.ciudad"
},
{
  "pk": 452,
  "fields": {
    "nombre": "Jun\u00edn",
    "latitud": 4.75,
    "departamento": 13,
    "codigo": "25372",
    "longitud": -73.6666667
  },
  "model": "entidades.ciudad"
},
{
  "pk": 453,
  "fields": {
    "nombre": "Jurad\u00f3",
    "latitud": 7.0,
    "departamento": 12,
    "codigo": "27372",
    "longitud": -77.6666667
  },
  "model": "entidades.ciudad"
},
{
  "pk": 454,
  "fields": {
    "nombre": "La Apartada y La Frontera",
    "latitud": null,
    "departamento": 14,
    "codigo": "23350",
    "longitud": null
  },
  "model": "entidades.ciudad"
},
{
  "pk": 455,
  "fields": {
    "nombre": "La Argentina",
    "latitud": 2.25,
    "departamento": 17,
    "codigo": "41378",
    "longitud": -76.1666667
  },
  "model": "entidades.ciudad"
},
{
  "pk": 456,
  "fields": {
    "nombre": "La Belleza",
    "latitud": 5.8613889,
    "departamento": 27,
    "codigo": "68377",
    "longitud": -73.9683333
  },
  "model": "entidades.ciudad"
},
{
  "pk": 457,
  "fields": {
    "nombre": "La Calera",
    "latitud": 4.75,
    "departamento": 13,
    "codigo": "25377",
    "longitud": -73.9166667
  },
  "model": "entidades.ciudad"
},
{
  "pk": 458,
  "fields": {
    "nombre": "La Capilla",
    "latitud": 5.15,
    "departamento": 6,
    "codigo": "15380",
    "longitud": -73.45
  },
  "model": "entidades.ciudad"
},
{
  "pk": 459,
  "fields": {
    "nombre": "La Ceja",
    "latitud": 6.0,
    "departamento": 2,
    "codigo": "05376",
    "longitud": -75.4166667
  },
  "model": "entidades.ciudad"
},
{
  "pk": 460,
  "fields": {
    "nombre": "La Celia",
    "latitud": 4.9666667,
    "departamento": 25,
    "codigo": "66383",
    "longitud": -76.0
  },
  "model": "entidades.ciudad"
},
{
  "pk": 461,
  "fields": {
    "nombre": "La Cruz",
    "latitud": 1.55,
    "departamento": 21,
    "codigo": "52378",
    "longitud": -76.8833333
  },
  "model": "entidades.ciudad"
},
{
  "pk": 462,
  "fields": {
    "nombre": "La Cumbre",
    "latitud": 3.6666667,
    "departamento": 30,
    "codigo": "76677",
    "longitud": -76.5833333
  },
  "model": "entidades.ciudad"
},
{
  "pk": 463,
  "fields": {
    "nombre": "La Dorada",
    "latitud": 5.5333333,
    "departamento": 7,
    "codigo": "17380",
    "longitud": -74.7
  },
  "model": "entidades.ciudad"
},
{
  "pk": 464,
  "fields": {
    "nombre": "La Esperanza",
    "latitud": 8.1666667,
    "departamento": 22,
    "codigo": "54385",
    "longitud": -72.4666667
  },
  "model": "entidades.ciudad"
},
{
  "pk": 465,
  "fields": {
    "nombre": "La Estrella",
    "latitud": 6.1666667,
    "departamento": 2,
    "codigo": "05380",
    "longitud": -75.6666667
  },
  "model": "entidades.ciudad"
},
{
  "pk": 466,
  "fields": {
    "nombre": "La Florida",
    "latitud": 1.25,
    "departamento": 21,
    "codigo": "52381",
    "longitud": -77.4166667
  },
  "model": "entidades.ciudad"
},
{
  "pk": 467,
  "fields": {
    "nombre": "La Gloria",
    "latitud": 8.5833333,
    "departamento": 11,
    "codigo": "20383",
    "longitud": -73.5833333
  },
  "model": "entidades.ciudad"
},
{
  "pk": 468,
  "fields": {
    "nombre": "La Jagua de Ibirico",
    "latitud": 9.5641667,
    "departamento": 11,
    "codigo": "20400",
    "longitud": -73.3375
  },
  "model": "entidades.ciudad"
},
{
  "pk": 469,
  "fields": {
    "nombre": "La Jagua del Pilar",
    "latitud": 10.5166667,
    "departamento": 18,
    "codigo": "44420",
    "longitud": -73.0833333
  },
  "model": "entidades.ciudad"
},
{
  "pk": 470,
  "fields": {
    "nombre": "La Llanada",
    "latitud": 1.4777778,
    "departamento": 21,
    "codigo": "52385",
    "longitud": -77.5838889
  },
  "model": "entidades.ciudad"
},
{
  "pk": 471,
  "fields": {
    "nombre": "La Macarena",
    "latitud": 2.8536111,
    "departamento": 20,
    "codigo": "50350",
    "longitud": -73.9436111
  },
  "model": "entidades.ciudad"
},
{
  "pk": 472,
  "fields": {
    "nombre": "La Merced",
    "latitud": 5.4019444,
    "departamento": 7,
    "codigo": "17388",
    "longitud": -75.8847222
  },
  "model": "entidades.ciudad"
},
{
  "pk": 473,
  "fields": {
    "nombre": "La Mesa",
    "latitud": 4.6666667,
    "departamento": 13,
    "codigo": "25386",
    "longitud": -74.5
  },
  "model": "entidades.ciudad"
},
{
  "pk": 474,
  "fields": {
    "nombre": "La Monta\u00f1ita",
    "latitud": 1.5833333,
    "departamento": 8,
    "codigo": "18410",
    "longitud": -75.25
  },
  "model": "entidades.ciudad"
},
{
  "pk": 475,
  "fields": {
    "nombre": "La Palma",
    "latitud": 5.4166667,
    "departamento": 13,
    "codigo": "25394",
    "longitud": -74.4166667
  },
  "model": "entidades.ciudad"
},
{
  "pk": 476,
  "fields": {
    "nombre": "La Paz",
    "latitud": 6.25,
    "departamento": 27,
    "codigo": "68397",
    "longitud": -73.4666667
  },
  "model": "entidades.ciudad"
},